[
  {
    "station_cd": 1130101,
    "station_g_cd": 1130101,
    "station_name": "東京",
    "station_name_k": "",
    "station_name_r": "",
    "line_cd": 11301,
    "pref_cd": 13,
    "post": "100-0005",
    "address": "東京都千代田区丸の内一丁目",
    "lon": 139.766103,
    "lat": 35.681391,
    "open_ymd": "0000-00-00",
    "close_ymd": "0000-00-00",
    "e_status": 0,
    "e_sort": 1130101
  },
  {
    "station_cd": 1130102,
    "station_g_cd": 1130102,
    "station_name": "新橋",
    "station_name_k": "",
    "station_name_r": "",
    "line_cd": 11301,
    "pref_cd": 13,
    "post": "105-0004",
    "address": "東京都港区新橋二丁目17",
    "lon": 139.758587,
    "lat": 35.666195,
    "open_ymd": "0000-00-00",
    "close_ymd": "0000-00-00",
    "e_status": 0,
    "e_sort": 1130102
  },
  {
    "station_cd": 1130103,
    "station_g_cd": 1130103,
    "station_name": "品川",
    "station_name_k": "",
    "station_name_r": "",
    "line_cd": 11301,
    "pref_cd": 13,
    "post": "108-0074",
    "address": "東京都港区高輪三丁目26-27",
    "lon": 139.738999,
    "lat": 35.62876,
    "open_ymd": "0000-00-00",
    "close_ymd": "0000-00-00",
    "e_status": 0,
    "e_sort": 1130103
  },
  {
    "station_cd": 1130201,
    "station_g_cd": 1130201,
    "station_name": "大崎",
    "station_name_k": "",
    "station_name_r": "",
    "line_cd": 11302,
    "pref_cd": 13,
    "post": "141-0032",
    "address": "東京都品川区大崎一丁目21-4",
    "lon": 139.728439,
    "lat": 35.619772,
    "open_ymd": "1901-02-25",
    "close_ymd": "0000-00-00",
    "e_status": 0,
    "e_sort": 1130201
  },
  {
    "station_cd": 1130202,
    "station_g_cd": 1130202,
    "station_name": "五反田",
    "station_name_k": "",
    "station_name_r": "",
    "line_cd": 11302,
    "pref_cd": 13,
    "post": "141-0022",
    "address": "東京都品川区東五反田一丁目26",
    "lon": 139.723822,
    "lat": 35.625974,
    "open_ymd": "1911-10-15",
    "close_ymd": "0000-00-00",
    "e_status": 0,
    "e_sort": 1130202
  },
  {
    "station_cd": 1130203,
    "station_g_cd": 1130203,
    "station_name": "目黒",
    "station_name_k": "",
    "station_name_r": "",
    "line_cd": 11302,
    "pref_cd": 13,
    "post": "141-0021",
    "address": "東京都品川区上大崎二丁目16-9",
    "lon": 139.715775,
    "lat": 35.633923,
    "open_ymd": "1885-03-16",
    "close_ymd": "0000-00-00",
    "e_status": 0,
    "e_sort": 1130203
  },
  {
    "station_cd": 1130204,
    "station_g_cd": 1130204,
    "station_name": "恵比寿",
    "station_name_k": "",
    "station_name_r": "",
    "line_cd": 11302,
    "pref_cd": 13,
    "post": "150-0022",
    "address": "東京都渋谷区恵比寿南一丁目5-5",
    "lon": 139.71007,
    "lat": 35.646685,
    "open_ymd": "1901-02-25",
    "close_ymd": "0000-00-00",
    "e_status": 0,
    "e_sort": 1130204
  },
  {
    "station_cd": 1130205,
    "station_g_cd": 1130205,
    "station_name": "渋谷",
    "station_name_k": "",
    "station_name_r": "",
    "line_cd": 11302,
    "pref_cd": 13,
    "post": "150-0043",
    "address": "東京都渋谷区道玄坂一丁目1-1",
    "lon": 139.701238,
    "lat": 35.658871,
    "open_ymd": "1885-03-01",
    "close_ymd": "0000-00-00",
    "e_status": 0,
    "e_sort": 1130205
  },
  {
    "station_cd": 1130206,
    "station_g_cd": 1130206,
    "station_name": "原宿",
    "station_name_k": "",
    "station_name_r": "",
    "line_cd": 11302,
    "pref_cd": 13,
    "post": "150-0001",
    "address": "東京都渋谷区神宮前一丁目18",
    "lon": 139.702592,
    "lat": 35.670646,
    "open_ymd": "1906-10-30",
    "close_ymd": "0000-00-00",
    "e_status": 0,
    "e_sort": 1130206
  },
  {
    "station_cd": 1130207,
    "station_g_cd": 1130207,
    "station_name": "代々木",
    "station_name_k": "",
    "station_name_r": "",
    "line_cd": 11302,
    "pref_cd": 13,
    "post": "151-0053",
    "address": "東京都渋谷区代々木一丁目34-1",
    "lon": 139.702042,
    "lat": 35.683061,
    "open_ymd": "1906-09-23",
    "close_ymd": "0000-00-00",
    "e_status": 0,
    "e_sort": 1130207
  },
  {
    "station_cd": 1130208,
    "station_g_cd": 1130208,
    "station_name": "新宿",
    "station_name_k": "",
    "station_name_r": "",
    "line_cd": 11302,
    "pref_cd": 13,
    "post": "160-0022",
    "address": "東京都新宿区新宿三丁目38-1",
    "lon": 139.700464,
    "lat": 35.689729,
    "open_ymd": "1885-03-01",
    "close_ymd": "0000-00-00",
    "e_status": 0,
    "e_sort": 1130208
  },
  {
    "station_cd": 1130209,
    "station_g_cd": 1130209,
    "station_name": "新大久保",
    "station_name_k": "",
    "station_name_r": "",
    "line_cd": 11302,
    "pref_cd": 13,
    "post": "169-0073",
    "address": "東京都新宿区百人町一丁目10-15",
    "lon": 139.700261,
    "lat": 35.700875,
    "open_ymd": "1914-11-15",
    "close_ymd": "0000-00-00",
    "e_status": 0,
    "e_sort": 1130209
  },
  {
    "station_cd": 1130210,
    "station_g_cd": 1130210,
    "station_name": "高田馬場",
    "station_name_k": "",
    "station_name_r": "",
    "line_cd": 11302,
    "pref_cd": 13,
    "post": "169-0075",
    "address": "東京都新宿区高田馬場一丁目35-1",
    "lon": 139.703715,
    "lat": 35.712677,
    "open_ymd": "1910-09-15",
    "close_ymd": "0000-00-00",
    "e_status": 0,
    "e_sort": 1130210
  },
  {
    "station_cd": 1130211,
    "station_g_cd": 1130211,
    "station_name": "目白",
    "station_name_k": "",
    "station_name_r": "",
    "line_cd": 11302,
    "pref_cd": 13,
    "post": "171-0031",
    "address": "東京都豊島区目白三丁目3-1",
    "lon": 139.706228,
    "lat": 35.720476,
    "open_ymd": "1885-03-16",
    "close_ymd": "0000-00-00",
    "e_status": 0,
    "e_sort": 1130211
  },
  {
    "station_cd": 1130212,
    "station_g_cd": 1130212,
    "station_name": "池袋",
    "station_name_k": "",
    "station_name_r": "",
    "line_cd": 11302,
    "pref_cd": 13,
    "post": "171-0022",
    "address": "東京都豊島区南池袋一丁目28-2",
    "lon": 139.711086,
    "lat": 35.730256,
    "open_ymd": "1903-04-01",
    "close_ymd": "0000-00-00",
    "e_status": 0,
    "e_sort": 1130212
  },
  {
    "station_cd": 1130213,
    "station_g_cd": 1130213,
    "station_name": "大塚",
    "station_name_k": "",
    "station_name_r": "",
    "line_cd": 11302,
    "pref_cd": 13,
    "post": "170-0005",
    "address": "東京都豊島区南大塚三丁目33-1",
    "lon": 139.728584,
    "lat": 35.731412,
    "open_ymd": "1903-04-01",
    "close_ymd": "0000-00-00",
    "e_status": 0,
    "e_sort": 1130213
  },
  {
    "station_cd": 1130214,
    "station_g_cd": 1130214,
    "station_name": "巣鴨",
    "station_name_k": "",
    "station_name_r": "",
    "line_cd": 11302,
    "pref_cd": 13,
    "post": "170-0002",
    "address": "東京都豊島区巣鴨一丁目16-1",
    "lon": 139.739303,
    "lat": 35.733445,
    "open_ymd": "1903-04-01",
    "close_ymd": "0000-00-00",
    "e_status": 0,
    "e_sort": 1130214
  },
  {
    "station_cd": 1130215,
    "station_g_cd": 1130215,
    "station_name": "駒込",
    "station_name_k": "",
    "station_name_r": "",
    "line_cd": 11302,
    "pref_cd": 13,
    "post": "170-0003",
    "address": "東京都豊島区駒込二丁目1-1",
    "lon": 139.748053,
    "lat": 35.736825,
    "open_ymd": "1910-11-15",
    "close_ymd": "0000-00-00",
    "e_status": 0,
    "e_sort": 1130215
  },
  {
    "station_cd": 1130216,
    "station_g_cd": 1130216,
    "station_name": "田端",
    "station_name_k": "",
    "station_name_r": "",
    "line_cd": 11302,
    "pref_cd": 13,
    "post": "114-0013",
    "address": "東京都北区東田端一丁目17-1",
    "lon": 139.761229,
    "lat": 35.737781,
    "open_ymd": "1896-04-01",
    "close_ymd": "0000-00-00",
    "e_status": 0,
    "e_sort": 1130216
  },
  {
    "station_cd": 1130217,
    "station_g_cd": 1130217,
    "station_name": "西日暮里",
    "station_name_k": "",
    "station_name_r": "",
    "line_cd": 11302,
    "pref_cd": 13,
    "post": "116-0013",
    "address": "東京都荒川区西日暮里五丁目22-1",
    "lon": 139.766857,
    "lat": 35.731954,
    "open_ymd": "1971-04-20",
    "close_ymd": "0000-00-00",
    "e_status": 0,
    "e_sort": 1130217
  },
  {
    "station_cd": 1130218,
    "station_g_cd": 1130218,
    "station_name": "日暮里",
    "station_name_k": "",
    "station_name_r": "",
    "line_cd": 11302,
    "pref_cd": 13,
    "post": "116-0013",
    "address": "東京都荒川区西日暮里二丁目19-1",
    "lon": 139.771287,
    "lat": 35.727908,
    "open_ymd": "1905-04-01",
    "close_ymd": "0000-00-00",
    "e_status": 0,
    "e_sort": 1130218
  },
  {
    "station_cd": 1130219,
    "station_g_cd": 1130219,
    "station_name": "鶯谷",
    "station_name_k": "",
    "station_name_r": "",
    "line_cd": 11302,
    "pref_cd": 13,
    "post": "110-0003",
    "address": "東京都台東区根岸一丁目4-1",
    "lon": 139.778015,
    "lat": 35.721484,
    "open_ymd": "1912-07-11",
    "close_ymd": "0000-00-00",
    "e_status": 0,
    "e_sort": 1130219
  },
  {
    "station_cd": 1130220,
    "station_g_cd": 1130220,
    "station_name": "上野",
    "station_name_k": "",
    "station_name_r": "",
    "line_cd": 11302,
    "pref_cd": 13,
    "post": "110-0005",
    "address": "東京都台東区上野七丁目1-1",
    "lon": 139.777043,
    "lat": 35.71379,
    "open_ymd": "1883-07-28",
    "close_ymd": "0000-00-00",
    "e_status": 0,
    "e_sort": 1130220
  },
  {
    "station_cd": 1130221,
    "station_g_cd": 1130221,
    "station_name": "御徒町",
    "station_name_k": "",
    "station_name_r": "",
    "line_cd": 11302,
    "pref_cd": 13,
    "post": "110-0005",
    "address": "東京都台東区上野五丁目27",
    "lon": 139.774727,
    "lat": 35.707282,
    "open_ymd": "1925-11-01",
    "close_ymd": "0000-00-00",
    "e_status": 0,
    "e_sort": 1130221
  },
  {
    "station_cd": 1130222,
    "station_g_cd": 1130222,
    "station_name": "秋葉原",
    "station_name_k": "",
    "station_name_r": "",
    "line_cd": 11302,
    "pref_cd": 13,
    "post": "101-0021",
    "address": "東京都千代田区外神田一丁目17",
    "lon": 139.773288,
    "lat": 35.698619,
    "open_ymd": "1890-11-01",
    "close_ymd": "0000-00-00",
    "e_status": 0,
    "e_sort": 1130222
  },
  {
    "station_cd": 1130223,
    "station_g_cd": 1130223,
    "station_name": "神田",
    "station_name_k": "",
    "station_name_r": "",
    "line_cd": 11302,
    "pref_cd": 13,
    "post": "101-0044",
    "address": "東京都千代田区鍛冶町二丁目13-1",
    "lon": 139.770641,
    "lat": 35.691173,
    "open_ymd": "1919-03-01",
    "close_ymd": "0000-00-00",
    "e_status": 0,
    "e_sort": 1130223
  },
  {
    "station_cd": 1130225,
    "station_g_cd": 1130225,
    "station_name": "有楽町",
    "station_name_k": "",
    "station_name_r": "",
    "line_cd": 11302,
    "pref_cd": 13,
    "post": "100-0006",
    "address": "東京都千代田区有楽町二丁目9",
    "lon": 139.763806,
    "lat": 35.675441,
    "open_ymd": "1910-06-25",
    "close_ymd": "0000-00-00",
    "e_status": 0,
    "e_sort": 1130225
  },
  {
    "station_cd": 1130227,
    "station_g_cd": 1130227,
    "station_name": "浜松町",
    "station_name_k": "",
    "station_name_r": "",
    "line_cd": 11302,
    "pref_cd": 13,
    "post": "105-0022",
    "address": "東京都港区海岸一丁目3-1",
    "lon": 139.757135,
    "lat": 35.655391,
    "open_ymd": "1909-12-16",
    "close_ymd": "0000-00-00",
    "e_status": 0,
    "e_sort": 1130227
  },
  {
    "station_cd": 1130228,
    "station_g_cd": 1130228,
    "station_name": "田町",
    "station_name_k": "",
    "station_name_r": "",
    "line_cd": 11302,
    "pref_cd": 13,
    "post": "108-0014",
    "address": "東京都港区芝五丁目33-36",
    "lon": 139.747575,
    "lat": 35.645736,
    "open_ymd": "1906-12-16",
    "close_ymd": "0000-00-00",
    "e_status": 0,
    "e_sort": 1130228
  },
  {
    "station_cd": 1130230,
    "station_g_cd": 1130230,
    "station_name": "高輪ゲートウェイ",
    "station_name_k": "",
    "station_name_r": "",
    "line_cd": 11302,
    "pref_cd": 13,
    "post": "108-0075",
    "address": "港区港南二丁目10-145",
    "lon": 139.7407,
    "lat": 35.6355,
    "open_ymd": "2020-03-14",
    "close_ymd": "0000-00-00",
    "e_status": 0,
    "e_sort": 1130228
  },
  {
    "station_cd": 1130317,
    "station_g_cd": 1130317,
    "station_name": "矢野口",
    "station_name_k": "",
    "station_name_r": "",
    "line_cd": 11303,
    "pref_cd": 13,
    "post": "206-0812",
    "address": "稲城市矢野口",
    "lon": 139.520849,
    "lat": 35.641305,
    "open_ymd": "0000-00-00",
    "close_ymd": "0000-00-00",
    "e_status": 0,
    "e_sort": 1130317
  },
  {
    "station_cd": 1130318,
    "station_g_cd": 1130318,
    "station_name": "稲城長沼",
    "station_name_k": "",
    "station_name_r": "",
    "line_cd": 11303,
    "pref_cd": 13,
    "post": "206-0802",
    "address": "稲城市東長沼",
    "lon": 139.502811,
    "lat": 35.644184,
    "open_ymd": "0000-00-00",
    "close_ymd": "0000-00-00",
    "e_status": 0,
    "e_sort": 1130318
  },
  {
    "station_cd": 1130319,
    "station_g_cd": 1130319,
    "station_name": "南多摩",
    "station_name_k": "",
    "station_name_r": "",
    "line_cd": 11303,
    "pref_cd": 13,
    "post": "206-0801",
    "address": "稲城市大丸",
    "lon": 139.489781,
    "lat": 35.649249,
    "open_ymd": "0000-00-00",
    "close_ymd": "0000-00-00",
    "e_status": 0,
    "e_sort": 1130319
  },
  {
    "station_cd": 1130320,
    "station_g_cd": 1130320,
    "station_name": "府中本町",
    "station_name_k": "",
    "station_name_r": "",
    "line_cd": 11303,
    "pref_cd": 13,
    "post": "183-0027",
    "address": "府中市本町１丁目",
    "lon": 139.477142,
    "lat": 35.665766,
    "open_ymd": "0000-00-00",
    "close_ymd": "0000-00-00",
    "e_status": 0,
    "e_sort": 1130320
  },
  {
    "station_cd": 1130321,
    "station_g_cd": 1130321,
    "station_name": "分倍河原",
    "station_name_k": "",
    "station_name_r": "",
    "line_cd": 11303,
    "pref_cd": 13,
    "post": "183-0021",
    "address": "府中市片町２丁目",
    "lon": 139.468798,
    "lat": 35.668493,
    "open_ymd": "0000-00-00",
    "close_ymd": "0000-00-00",
    "e_status": 0,
    "e_sort": 1130321
  },
  {
    "station_cd": 1130329,
    "station_g_cd": 1130329,
    "station_name": "西府",
    "station_name_k": "",
    "station_name_r": "",
    "line_cd": 11303,
    "pref_cd": 13,
    "post": "183-0032",
    "address": "東京都府中市本宿町一丁目40-6",
    "lon": 139.457477,
    "lat": 35.670912,
    "open_ymd": "2009-03-14",
    "close_ymd": "0000-00-00",
    "e_status": 0,
    "e_sort": 1130321
  },
  {
    "station_cd": 1130322,
    "station_g_cd": 1130322,
    "station_name": "谷保",
    "station_name_k": "",
    "station_name_r": "",
    "line_cd": 11303,
    "pref_cd": 13,
    "post": "186-0011",
    "address": "国立市谷保町",
    "lon": 139.446724,
    "lat": 35.681377,
    "open_ymd": "0000-00-00",
    "close_ymd": "0000-00-00",
    "e_status": 0,
    "e_sort": 1130322
  },
  {
    "station_cd": 1130323,
    "station_g_cd": 1130323,
    "station_name": "矢川",
    "station_name_k": "",
    "station_name_r": "",
    "line_cd": 11303,
    "pref_cd": 13,
    "post": "186-0011",
    "address": "国立市谷保石田",
    "lon": 139.431611,
    "lat": 35.685079,
    "open_ymd": "0000-00-00",
    "close_ymd": "0000-00-00",
    "e_status": 0,
    "e_sort": 1130323
  },
  {
    "station_cd": 1130324,
    "station_g_cd": 1130324,
    "station_name": "西国立",
    "station_name_k": "",
    "station_name_r": "",
    "line_cd": 11303,
    "pref_cd": 13,
    "post": "190-0021",
    "address": "立川市羽衣町１丁目",
    "lon": 139.423887,
    "lat": 35.69375,
    "open_ymd": "0000-00-00",
    "close_ymd": "0000-00-00",
    "e_status": 0,
    "e_sort": 1130324
  },
  {
    "station_cd": 1130325,
    "station_g_cd": 1130325,
    "station_name": "立川",
    "station_name_k": "",
    "station_name_r": "",
    "line_cd": 11303,
    "pref_cd": 13,
    "post": "190-0012",
    "address": "東京都立川市曙町二丁目1-1",
    "lon": 139.413704,
    "lat": 35.698202,
    "open_ymd": "0000-00-00",
    "close_ymd": "0000-00-00",
    "e_status": 0,
    "e_sort": 1130325
  },
  {
    "station_cd": 1130502,
    "station_g_cd": 1130502,
    "station_name": "北府中",
    "station_name_k": "",
    "station_name_r": "",
    "line_cd": 11305,
    "pref_cd": 13,
    "post": "183-0057",
    "address": "府中市晴見町２丁目",
    "lon": 139.471792,
    "lat": 35.68088,
    "open_ymd": "0000-00-00",
    "close_ymd": "0000-00-00",
    "e_status": 0,
    "e_sort": 1130502
  },
  {
    "station_cd": 1130503,
    "station_g_cd": 1130503,
    "station_name": "西国分寺",
    "station_name_k": "",
    "station_name_r": "",
    "line_cd": 11305,
    "pref_cd": 13,
    "post": "185-0013",
    "address": "国分寺市西恋ケ窪２丁目",
    "lon": 139.465994,
    "lat": 35.699744,
    "open_ymd": "0000-00-00",
    "close_ymd": "0000-00-00",
    "e_status": 0,
    "e_sort": 1130503
  },
  {
    "station_cd": 1130504,
    "station_g_cd": 1130504,
    "station_name": "新小平",
    "station_name_k": "",
    "station_name_r": "",
    "line_cd": 11305,
    "pref_cd": 13,
    "post": "187-0032",
    "address": "小平市小川町２丁目",
    "lon": 139.470745,
    "lat": 35.73128,
    "open_ymd": "0000-00-00",
    "close_ymd": "0000-00-00",
    "e_status": 0,
    "e_sort": 1130504
  },
  {
    "station_cd": 1130505,
    "station_g_cd": 1130505,
    "station_name": "新秋津",
    "station_name_k": "",
    "station_name_r": "",
    "line_cd": 11305,
    "pref_cd": 13,
    "post": "189-0001",
    "address": "東村山市秋津町５丁目",
    "lon": 139.493592,
    "lat": 35.778331,
    "open_ymd": "0000-00-00",
    "close_ymd": "0000-00-00",
    "e_status": 0,
    "e_sort": 1130505
  },
  {
    "station_cd": 1130610,
    "station_g_cd": 1130610,
    "station_name": "成瀬",
    "station_name_k": "",
    "station_name_r": "",
    "line_cd": 11306,
    "pref_cd": 13,
    "post": "194-0045",
    "address": "町田市南成瀬１丁目",
    "lon": 139.472875,
    "lat": 35.535412,
    "open_ymd": "0000-00-00",
    "close_ymd": "0000-00-00",
    "e_status": 0,
    "e_sort": 1130610
  },
  {
    "station_cd": 1130611,
    "station_g_cd": 1130611,
    "station_name": "町田",
    "station_name_k": "",
    "station_name_r": "",
    "line_cd": 11306,
    "pref_cd": 13,
    "post": "194-0013",
    "address": "町田市原町田１丁目",
    "lon": 139.445579,
    "lat": 35.542004,
    "open_ymd": "0000-00-00",
    "close_ymd": "0000-00-00",
    "e_status": 0,
    "e_sort": 1130611
  },
  {
    "station_cd": 1130617,
    "station_g_cd": 1130617,
    "station_name": "相原",
    "station_name_k": "",
    "station_name_r": "",
    "line_cd": 11306,
    "pref_cd": 13,
    "post": "194-0211",
    "address": "町田市相原町",
    "lon": 139.33169,
    "lat": 35.60694,
    "open_ymd": "0000-00-00",
    "close_ymd": "0000-00-00",
    "e_status": 0,
    "e_sort": 1130617
  },
  {
    "station_cd": 1130618,
    "station_g_cd": 1130618,
    "station_name": "八王子みなみ野",
    "station_name_k": "",
    "station_name_r": "",
    "line_cd": 11306,
    "pref_cd": 13,
    "post": "192-0915",
    "address": "八王子市宇津貫町",
    "lon": 139.330678,
    "lat": 35.630664,
    "open_ymd": "0000-00-00",
    "close_ymd": "0000-00-00",
    "e_status": 0,
    "e_sort": 1130618
  },
  {
    "station_cd": 1130619,
    "station_g_cd": 1130619,
    "station_name": "片倉",
    "station_name_k": "",
    "station_name_r": "",
    "line_cd": 11306,
    "pref_cd": 13,
    "post": "192-0914",
    "address": "八王子市片倉町",
    "lon": 139.34119,
    "lat": 35.639704,
    "open_ymd": "0000-00-00",
    "close_ymd": "0000-00-00",
    "e_status": 0,
    "e_sort": 1130619
  },
  {
    "station_cd": 1130620,
    "station_g_cd": 1130620,
    "station_name": "八王子",
    "station_name_k": "",
    "station_name_r": "",
    "line_cd": 11306,
    "pref_cd": 13,
    "post": "192-0083",
    "address": "東京都八王子市旭町1-1",
    "lon": 139.338998,
    "lat": 35.655555,
    "open_ymd": "0000-00-00",
    "close_ymd": "0000-00-00",
    "e_status": 0,
    "e_sort": 1130620
  },
  {
    "station_cd": 1130804,
    "station_g_cd": 1130804,
    "station_name": "西大井",
    "station_name_k": "",
    "station_name_r": "",
    "line_cd": 11308,
    "pref_cd": 13,
    "post": "140-0015",
    "address": "品川区西大井１丁目",
    "lon": 139.721729,
    "lat": 35.601616,
    "open_ymd": "0000-00-00",
    "close_ymd": "0000-00-00",
    "e_status": 0,
    "e_sort": 1130804
  },
  {
    "station_cd": 1131102,
    "station_g_cd": 1131102,
    "station_name": "四ツ谷",
    "station_name_k": "",
    "station_name_r": "",
    "line_cd": 11311,
    "pref_cd": 13,
    "post": "160-0004",
    "address": "東京都新宿区四谷一丁目",
    "lon": 139.730644,
    "lat": 35.686041,
    "open_ymd": "0000-00-00",
    "close_ymd": "0000-00-00",
    "e_status": 0,
    "e_sort": 1131102
  },
  {
    "station_cd": 1131104,
    "station_g_cd": 1131104,
    "station_name": "吉祥寺",
    "station_name_k": "",
    "station_name_r": "",
    "line_cd": 11311,
    "pref_cd": 13,
    "post": "180-0003",
    "address": "東京都武蔵野市吉祥寺南町",
    "lon": 139.579765,
    "lat": 35.703119,
    "open_ymd": "0000-00-00",
    "close_ymd": "0000-00-00",
    "e_status": 0,
    "e_sort": 1131104
  },
  {
    "station_cd": 1131105,
    "station_g_cd": 1131105,
    "station_name": "三鷹",
    "station_name_k": "",
    "station_name_r": "",
    "line_cd": 11311,
    "pref_cd": 13,
    "post": "181-0013",
    "address": "東京都三鷹市下連雀三丁目46-1",
    "lon": 139.560325,
    "lat": 35.702683,
    "open_ymd": "0000-00-00",
    "close_ymd": "0000-00-00",
    "e_status": 0,
    "e_sort": 1131105
  },
  {
    "station_cd": 1131106,
    "station_g_cd": 1131106,
    "station_name": "国分寺",
    "station_name_k": "",
    "station_name_r": "",
    "line_cd": 11311,
    "pref_cd": 13,
    "post": "185-0012",
    "address": "東京都国分寺市本町二丁目1-23",
    "lon": 139.480841,
    "lat": 35.700123,
    "open_ymd": "0000-00-00",
    "close_ymd": "0000-00-00",
    "e_status": 0,
    "e_sort": 1131106
  },
  {
    "station_cd": 1131108,
    "station_g_cd": 1131108,
    "station_name": "日野",
    "station_name_k": "",
    "station_name_r": "",
    "line_cd": 11311,
    "pref_cd": 13,
    "post": "191-0061",
    "address": "日野市大坂上１丁目",
    "lon": 139.39393,
    "lat": 35.679244,
    "open_ymd": "0000-00-00",
    "close_ymd": "0000-00-00",
    "e_status": 0,
    "e_sort": 1131108
  },
  {
    "station_cd": 1131109,
    "station_g_cd": 1131109,
    "station_name": "豊田",
    "station_name_k": "",
    "station_name_r": "",
    "line_cd": 11311,
    "pref_cd": 13,
    "post": "191-0053",
    "address": "日野市豊田４丁目",
    "lon": 139.381495,
    "lat": 35.659502,
    "open_ymd": "0000-00-00",
    "close_ymd": "0000-00-00",
    "e_status": 0,
    "e_sort": 1131109
  },
  {
    "station_cd": 1131111,
    "station_g_cd": 1131111,
    "station_name": "西八王子",
    "station_name_k": "",
    "station_name_r": "",
    "line_cd": 11311,
    "pref_cd": 13,
    "post": "193-0835",
    "address": "八王子市千人町２丁目",
    "lon": 139.31264,
    "lat": 35.656621,
    "open_ymd": "0000-00-00",
    "close_ymd": "0000-00-00",
    "e_status": 0,
    "e_sort": 1131111
  },
  {
    "station_cd": 1131112,
    "station_g_cd": 1131112,
    "station_name": "高尾",
    "station_name_k": "",
    "station_name_r": "",
    "line_cd": 11311,
    "pref_cd": 13,
    "post": "193-0844",
    "address": "八王子市高尾町",
    "lon": 139.282288,
    "lat": 35.642026,
    "open_ymd": "0000-00-00",
    "close_ymd": "0000-00-00",
    "e_status": 0,
    "e_sort": 1131112
  },
  {
    "station_cd": 1131203,
    "station_g_cd": 1131203,
    "station_name": "御茶ノ水",
    "station_name_k": "",
    "station_name_r": "",
    "line_cd": 11312,
    "pref_cd": 13,
    "post": "101-0062",
    "address": "千代田区神田駿河台２丁目",
    "lon": 139.764955,
    "lat": 35.699605,
    "open_ymd": "0000-00-00",
    "close_ymd": "0000-00-00",
    "e_status": 0,
    "e_sort": 1131203
  },
  {
    "station_cd": 1131214,
    "station_g_cd": 1131214,
    "station_name": "中野",
    "station_name_k": "",
    "station_name_r": "",
    "line_cd": 11312,
    "pref_cd": 13,
    "post": "164-0001",
    "address": "中野区中野５丁目",
    "lon": 139.665835,
    "lat": 35.705765,
    "open_ymd": "0000-00-00",
    "close_ymd": "0000-00-00",
    "e_status": 0,
    "e_sort": 1131214
  },
  {
    "station_cd": 1131215,
    "station_g_cd": 1131215,
    "station_name": "高円寺",
    "station_name_k": "",
    "station_name_r": "",
    "line_cd": 11312,
    "pref_cd": 13,
    "post": "166-0003",
    "address": "杉並区高円寺南４丁目",
    "lon": 139.649664,
    "lat": 35.705326,
    "open_ymd": "0000-00-00",
    "close_ymd": "0000-00-00",
    "e_status": 0,
    "e_sort": 1131215
  },
  {
    "station_cd": 1131216,
    "station_g_cd": 1131216,
    "station_name": "阿佐ケ谷",
    "station_name_k": "",
    "station_name_r": "",
    "line_cd": 11312,
    "pref_cd": 13,
    "post": "166-0004",
    "address": "東京都杉並区阿佐谷南三丁目36-3",
    "lon": 139.635868,
    "lat": 35.704818,
    "open_ymd": "0000-00-00",
    "close_ymd": "0000-00-00",
    "e_status": 0,
    "e_sort": 1131216
  },
  {
    "station_cd": 1131217,
    "station_g_cd": 1131217,
    "station_name": "荻窪",
    "station_name_k": "",
    "station_name_r": "",
    "line_cd": 11312,
    "pref_cd": 13,
    "post": "167-0043",
    "address": "杉並区上荻１丁目",
    "lon": 139.620109,
    "lat": 35.704523,
    "open_ymd": "0000-00-00",
    "close_ymd": "0000-00-00",
    "e_status": 0,
    "e_sort": 1131217
  },
  {
    "station_cd": 1131218,
    "station_g_cd": 1131218,
    "station_name": "西荻窪",
    "station_name_k": "",
    "station_name_r": "",
    "line_cd": 11312,
    "pref_cd": 13,
    "post": "167-0053",
    "address": "杉並区西荻南３丁目",
    "lon": 139.599361,
    "lat": 35.703842,
    "open_ymd": "0000-00-00",
    "close_ymd": "0000-00-00",
    "e_status": 0,
    "e_sort": 1131218
  },
  {
    "station_cd": 1131221,
    "station_g_cd": 1131221,
    "station_name": "武蔵境",
    "station_name_k": "",
    "station_name_r": "",
    "line_cd": 11312,
    "pref_cd": 13,
    "post": "180-0022",
    "address": "武蔵野市境１丁目",
    "lon": 139.543402,
    "lat": 35.702083,
    "open_ymd": "0000-00-00",
    "close_ymd": "0000-00-00",
    "e_status": 0,
    "e_sort": 1131221
  },
  {
    "station_cd": 1131222,
    "station_g_cd": 1131222,
    "station_name": "東小金井",
    "station_name_k": "",
    "station_name_r": "",
    "line_cd": 11312,
    "pref_cd": 13,
    "post": "184-0002",
    "address": "小金井市梶野町５丁目",
    "lon": 139.524837,
    "lat": 35.701643,
    "open_ymd": "0000-00-00",
    "close_ymd": "0000-00-00",
    "e_status": 0,
    "e_sort": 1131222
  },
  {
    "station_cd": 1131223,
    "station_g_cd": 1131223,
    "station_name": "武蔵小金井",
    "station_name_k": "",
    "station_name_r": "",
    "line_cd": 11312,
    "pref_cd": 13,
    "post": "184-0004",
    "address": "小金井市本町６丁目",
    "lon": 139.506483,
    "lat": 35.701337,
    "open_ymd": "0000-00-00",
    "close_ymd": "0000-00-00",
    "e_status": 0,
    "e_sort": 1131223
  },
  {
    "station_cd": 1131226,
    "station_g_cd": 1131226,
    "station_name": "国立",
    "station_name_k": "",
    "station_name_r": "",
    "line_cd": 11312,
    "pref_cd": 13,
    "post": "186-0001",
    "address": "国立市北１丁目",
    "lon": 139.44634,
    "lat": 35.69923,
    "open_ymd": "0000-00-00",
    "close_ymd": "0000-00-00",
    "e_status": 0,
    "e_sort": 1131226
  },
  {
    "station_cd": 1131308,
    "station_g_cd": 1131308,
    "station_name": "東中野",
    "station_name_k": "",
    "station_name_r": "",
    "line_cd": 11313,
    "pref_cd": 13,
    "post": "164-0003",
    "address": "中野区東中野４丁目",
    "lon": 139.684436,
    "lat": 35.706529,
    "open_ymd": "0000-00-00",
    "close_ymd": "0000-00-00",
    "e_status": 0,
    "e_sort": 1131308
  },
  {
    "station_cd": 1131309,
    "station_g_cd": 1131309,
    "station_name": "大久保",
    "station_name_k": "",
    "station_name_r": "",
    "line_cd": 11313,
    "pref_cd": 13,
    "post": "169-0073",
    "address": "新宿区百人町１丁目",
    "lon": 139.69732,
    "lat": 35.700784,
    "open_ymd": "0000-00-00",
    "close_ymd": "0000-00-00",
    "e_status": 0,
    "e_sort": 1131309
  },
  {
    "station_cd": 1131312,
    "station_g_cd": 1131312,
    "station_name": "千駄ケ谷",
    "station_name_k": "",
    "station_name_r": "",
    "line_cd": 11313,
    "pref_cd": 13,
    "post": "151-0051",
    "address": "東京都渋谷区千駄ヶ谷一丁目35-10",
    "lon": 139.711644,
    "lat": 35.681231,
    "open_ymd": "0000-00-00",
    "close_ymd": "0000-00-00",
    "e_status": 0,
    "e_sort": 1131312
  },
  {
    "station_cd": 1131313,
    "station_g_cd": 1131313,
    "station_name": "信濃町",
    "station_name_k": "",
    "station_name_r": "",
    "line_cd": 11313,
    "pref_cd": 13,
    "post": "160-0016",
    "address": "新宿区信濃町",
    "lon": 139.720729,
    "lat": 35.680031,
    "open_ymd": "0000-00-00",
    "close_ymd": "0000-00-00",
    "e_status": 0,
    "e_sort": 1131313
  },
  {
    "station_cd": 1131315,
    "station_g_cd": 1131315,
    "station_name": "市ケ谷",
    "station_name_k": "",
    "station_name_r": "",
    "line_cd": 11313,
    "pref_cd": 13,
    "post": "162-0843",
    "address": "東京都新宿区市谷田町一丁目1",
    "lon": 139.735583,
    "lat": 35.691,
    "open_ymd": "0000-00-00",
    "close_ymd": "0000-00-00",
    "e_status": 0,
    "e_sort": 1131315
  },
  {
    "station_cd": 1131316,
    "station_g_cd": 1131316,
    "station_name": "飯田橋",
    "station_name_k": "",
    "station_name_r": "",
    "line_cd": 11313,
    "pref_cd": 13,
    "post": "102-0072",
    "address": "東京都千代田区飯田橋四丁目10-2",
    "lon": 139.745143,
    "lat": 35.701835,
    "open_ymd": "0000-00-00",
    "close_ymd": "0000-00-00",
    "e_status": 0,
    "e_sort": 1131316
  },
  {
    "station_cd": 1131317,
    "station_g_cd": 1131317,
    "station_name": "水道橋",
    "station_name_k": "",
    "station_name_r": "",
    "line_cd": 11313,
    "pref_cd": 13,
    "post": "101-0061",
    "address": "千代田区三崎町２丁目",
    "lon": 139.754312,
    "lat": 35.702039,
    "open_ymd": "0000-00-00",
    "close_ymd": "0000-00-00",
    "e_status": 0,
    "e_sort": 1131317
  },
  {
    "station_cd": 1131320,
    "station_g_cd": 1131320,
    "station_name": "浅草橋",
    "station_name_k": "",
    "station_name_r": "",
    "line_cd": 11313,
    "pref_cd": 13,
    "post": "111-0053",
    "address": "台東区浅草橋１丁目",
    "lon": 139.784427,
    "lat": 35.697403,
    "open_ymd": "0000-00-00",
    "close_ymd": "0000-00-00",
    "e_status": 0,
    "e_sort": 1131320
  },
  {
    "station_cd": 1131321,
    "station_g_cd": 1131321,
    "station_name": "両国",
    "station_name_k": "",
    "station_name_r": "",
    "line_cd": 11313,
    "pref_cd": 13,
    "post": "130-0015",
    "address": "墨田区横網１丁目",
    "lon": 139.793334,
    "lat": 35.69579,
    "open_ymd": "0000-00-00",
    "close_ymd": "0000-00-00",
    "e_status": 0,
    "e_sort": 1131321
  },
  {
    "station_cd": 1131322,
    "station_g_cd": 1131322,
    "station_name": "錦糸町",
    "station_name_k": "",
    "station_name_r": "",
    "line_cd": 11313,
    "pref_cd": 13,
    "post": "130-0022",
    "address": "墨田区江東橋３丁目",
    "lon": 139.814136,
    "lat": 35.696802,
    "open_ymd": "0000-00-00",
    "close_ymd": "0000-00-00",
    "e_status": 0,
    "e_sort": 1131322
  },
  {
    "station_cd": 1131323,
    "station_g_cd": 1131323,
    "station_name": "亀戸",
    "station_name_k": "",
    "station_name_r": "",
    "line_cd": 11313,
    "pref_cd": 13,
    "post": "136-0071",
    "address": "江東区亀戸５丁目",
    "lon": 139.826262,
    "lat": 35.697345,
    "open_ymd": "0000-00-00",
    "close_ymd": "0000-00-00",
    "e_status": 0,
    "e_sort": 1131323
  },
  {
    "station_cd": 1131324,
    "station_g_cd": 1131324,
    "station_name": "平井",
    "station_name_k": "",
    "station_name_r": "",
    "line_cd": 11313,
    "pref_cd": 13,
    "post": "132-0035",
    "address": "江戸川区平井３丁目",
    "lon": 139.842181,
    "lat": 35.70643,
    "open_ymd": "0000-00-00",
    "close_ymd": "0000-00-00",
    "e_status": 0,
    "e_sort": 1131324
  },
  {
    "station_cd": 1131325,
    "station_g_cd": 1131325,
    "station_name": "新小岩",
    "station_name_k": "",
    "station_name_r": "",
    "line_cd": 11313,
    "pref_cd": 13,
    "post": "124-0024",
    "address": "葛飾区新小岩１丁目",
    "lon": 139.857777,
    "lat": 35.716903,
    "open_ymd": "0000-00-00",
    "close_ymd": "0000-00-00",
    "e_status": 0,
    "e_sort": 1131325
  },
  {
    "station_cd": 1131326,
    "station_g_cd": 1131326,
    "station_name": "小岩",
    "station_name_k": "",
    "station_name_r": "",
    "line_cd": 11313,
    "pref_cd": 13,
    "post": "133-0056",
    "address": "江戸川区南小岩７丁目",
    "lon": 139.881755,
    "lat": 35.733207,
    "open_ymd": "0000-00-00",
    "close_ymd": "0000-00-00",
    "e_status": 0,
    "e_sort": 1131326
  },
  {
    "station_cd": 1131402,
    "station_g_cd": 1131402,
    "station_name": "新日本橋",
    "station_name_k": "",
    "station_name_r": "",
    "line_cd": 11314,
    "pref_cd": 13,
    "post": "103-0022",
    "address": "中央区日本橋室町４丁目",
    "lon": 139.77323,
    "lat": 35.688687,
    "open_ymd": "0000-00-00",
    "close_ymd": "0000-00-00",
    "e_status": 0,
    "e_sort": 1131402
  },
  {
    "station_cd": 1131403,
    "station_g_cd": 1131403,
    "station_name": "馬喰町",
    "station_name_k": "",
    "station_name_r": "",
    "line_cd": 11314,
    "pref_cd": 13,
    "post": "103-0002",
    "address": "中央区日本橋馬喰町１丁目",
    "lon": 139.78238,
    "lat": 35.693365,
    "open_ymd": "0000-00-00",
    "close_ymd": "0000-00-00",
    "e_status": 0,
    "e_sort": 1131403
  },
  {
    "station_cd": 1131502,
    "station_g_cd": 1131502,
    "station_name": "西立川",
    "station_name_k": "",
    "station_name_r": "",
    "line_cd": 11315,
    "pref_cd": 13,
    "post": "190-0013",
    "address": "立川市富士見町１丁目",
    "lon": 139.393556,
    "lat": 35.703526,
    "open_ymd": "0000-00-00",
    "close_ymd": "0000-00-00",
    "e_status": 0,
    "e_sort": 1131502
  },
  {
    "station_cd": 1131503,
    "station_g_cd": 1131503,
    "station_name": "東中神",
    "station_name_k": "",
    "station_name_r": "",
    "line_cd": 11315,
    "pref_cd": 13,
    "post": "196-0034",
    "address": "昭島市玉川町１丁目",
    "lon": 139.384529,
    "lat": 35.706337,
    "open_ymd": "0000-00-00",
    "close_ymd": "0000-00-00",
    "e_status": 0,
    "e_sort": 1131503
  },
  {
    "station_cd": 1131504,
    "station_g_cd": 1131504,
    "station_name": "中神",
    "station_name_k": "",
    "station_name_r": "",
    "line_cd": 11315,
    "pref_cd": 13,
    "post": "196-0025",
    "address": "昭島市朝日町１丁目",
    "lon": 139.375816,
    "lat": 35.709058,
    "open_ymd": "0000-00-00",
    "close_ymd": "0000-00-00",
    "e_status": 0,
    "e_sort": 1131504
  },
  {
    "station_cd": 1131505,
    "station_g_cd": 1131505,
    "station_name": "昭島",
    "station_name_k": "",
    "station_name_r": "",
    "line_cd": 11315,
    "pref_cd": 13,
    "post": "196-0015",
    "address": "昭島市昭和町２丁目",
    "lon": 139.361564,
    "lat": 35.713305,
    "open_ymd": "0000-00-00",
    "close_ymd": "0000-00-00",
    "e_status": 0,
    "e_sort": 1131505
  },
  {
    "station_cd": 1131506,
    "station_g_cd": 1131506,
    "station_name": "拝島",
    "station_name_k": "",
    "station_name_r": "",
    "line_cd": 11315,
    "pref_cd": 13,
    "post": "196-0003",
    "address": "昭島市松原町４丁目",
    "lon": 139.343468,
    "lat": 35.721278,
    "open_ymd": "0000-00-00",
    "close_ymd": "0000-00-00",
    "e_status": 0,
    "e_sort": 1131506
  },
  {
    "station_cd": 1131507,
    "station_g_cd": 1131507,
    "station_name": "牛浜",
    "station_name_k": "",
    "station_name_r": "",
    "line_cd": 11315,
    "pref_cd": 13,
    "post": "197-0024",
    "address": "福生市牛浜",
    "lon": 139.333677,
    "lat": 35.734547,
    "open_ymd": "0000-00-00",
    "close_ymd": "0000-00-00",
    "e_status": 0,
    "e_sort": 1131507
  },
  {
    "station_cd": 1131508,
    "station_g_cd": 1131508,
    "station_name": "福生",
    "station_name_k": "",
    "station_name_r": "",
    "line_cd": 11315,
    "pref_cd": 13,
    "post": "197-0022",
    "address": "福生市本町",
    "lon": 139.327763,
    "lat": 35.742456,
    "open_ymd": "0000-00-00",
    "close_ymd": "0000-00-00",
    "e_status": 0,
    "e_sort": 1131508
  },
  {
    "station_cd": 1131509,
    "station_g_cd": 1131509,
    "station_name": "羽村",
    "station_name_k": "",
    "station_name_r": "",
    "line_cd": 11315,
    "pref_cd": 13,
    "post": "205-0014",
    "address": "羽村市羽東１丁目",
    "lon": 139.316188,
    "lat": 35.758073,
    "open_ymd": "0000-00-00",
    "close_ymd": "0000-00-00",
    "e_status": 0,
    "e_sort": 1131509
  },
  {
    "station_cd": 1131510,
    "station_g_cd": 1131510,
    "station_name": "小作",
    "station_name_k": "",
    "station_name_r": "",
    "line_cd": 11315,
    "pref_cd": 13,
    "post": "205-0001",
    "address": "羽村市小作台",
    "lon": 139.302233,
    "lat": 35.776048,
    "open_ymd": "0000-00-00",
    "close_ymd": "0000-00-00",
    "e_status": 0,
    "e_sort": 1131510
  },
  {
    "station_cd": 1131511,
    "station_g_cd": 1131511,
    "station_name": "河辺",
    "station_name_k": "",
    "station_name_r": "",
    "line_cd": 11315,
    "pref_cd": 13,
    "post": "198-0036",
    "address": "青梅市河辺町５丁目",
    "lon": 139.284032,
    "lat": 35.78473,
    "open_ymd": "0000-00-00",
    "close_ymd": "0000-00-00",
    "e_status": 0,
    "e_sort": 1131511
  },
  {
    "station_cd": 1131512,
    "station_g_cd": 1131512,
    "station_name": "東青梅",
    "station_name_k": "",
    "station_name_r": "",
    "line_cd": 11315,
    "pref_cd": 13,
    "post": "198-0042",
    "address": "青梅市東青梅１丁目",
    "lon": 139.272841,
    "lat": 35.789768,
    "open_ymd": "0000-00-00",
    "close_ymd": "0000-00-00",
    "e_status": 0,
    "e_sort": 1131512
  },
  {
    "station_cd": 1131513,
    "station_g_cd": 1131513,
    "station_name": "青梅",
    "station_name_k": "",
    "station_name_r": "",
    "line_cd": 11315,
    "pref_cd": 13,
    "post": "198-0000",
    "address": "青梅市青梅",
    "lon": 139.258096,
    "lat": 35.790512,
    "open_ymd": "0000-00-00",
    "close_ymd": "0000-00-00",
    "e_status": 0,
    "e_sort": 1131513
  },
  {
    "station_cd": 1131514,
    "station_g_cd": 1131514,
    "station_name": "宮ノ平",
    "station_name_k": "",
    "station_name_r": "",
    "line_cd": 11315,
    "pref_cd": 13,
    "post": "198-0046",
    "address": "青梅市日向和田２丁目",
    "lon": 139.237289,
    "lat": 35.787545,
    "open_ymd": "0000-00-00",
    "close_ymd": "0000-00-00",
    "e_status": 0,
    "e_sort": 1131514
  },
  {
    "station_cd": 1131515,
    "station_g_cd": 1131515,
    "station_name": "日向和田",
    "station_name_k": "",
    "station_name_r": "",
    "line_cd": 11315,
    "pref_cd": 13,
    "post": "198-0046",
    "address": "青梅市日向和田３丁目",
    "lon": 139.229515,
    "lat": 35.788665,
    "open_ymd": "0000-00-00",
    "close_ymd": "0000-00-00",
    "e_status": 0,
    "e_sort": 1131515
  },
  {
    "station_cd": 1131516,
    "station_g_cd": 1131516,
    "station_name": "石神前",
    "station_name_k": "",
    "station_name_r": "",
    "line_cd": 11315,
    "pref_cd": 13,
    "post": "198-0171",
    "address": "青梅市二俣尾１丁目",
    "lon": 139.225096,
    "lat": 35.79683,
    "open_ymd": "0000-00-00",
    "close_ymd": "0000-00-00",
    "e_status": 0,
    "e_sort": 1131516
  },
  {
    "station_cd": 1131517,
    "station_g_cd": 1131517,
    "station_name": "二俣尾",
    "station_name_k": "",
    "station_name_r": "",
    "line_cd": 11315,
    "pref_cd": 13,
    "post": "198-0171",
    "address": "青梅市二俣尾４丁目",
    "lon": 139.216161,
    "lat": 35.803946,
    "open_ymd": "0000-00-00",
    "close_ymd": "0000-00-00",
    "e_status": 0,
    "e_sort": 1131517
  },
  {
    "station_cd": 1131518,
    "station_g_cd": 1131518,
    "station_name": "軍畑",
    "station_name_k": "",
    "station_name_r": "",
    "line_cd": 11315,
    "pref_cd": 13,
    "post": "198-0172",
    "address": "青梅市沢井１丁目",
    "lon": 139.207431,
    "lat": 35.807382,
    "open_ymd": "0000-00-00",
    "close_ymd": "0000-00-00",
    "e_status": 0,
    "e_sort": 1131518
  },
  {
    "station_cd": 1131519,
    "station_g_cd": 1131519,
    "station_name": "沢井",
    "station_name_k": "",
    "station_name_r": "",
    "line_cd": 11315,
    "pref_cd": 13,
    "post": "198-0172",
    "address": "青梅市沢井２丁目",
    "lon": 139.193324,
    "lat": 35.80594,
    "open_ymd": "0000-00-00",
    "close_ymd": "0000-00-00",
    "e_status": 0,
    "e_sort": 1131519
  },
  {
    "station_cd": 1131520,
    "station_g_cd": 1131520,
    "station_name": "御嶽",
    "station_name_k": "",
    "station_name_r": "",
    "line_cd": 11315,
    "pref_cd": 13,
    "post": "198-0173",
    "address": "青梅市御岳本町",
    "lon": 139.182589,
    "lat": 35.801468,
    "open_ymd": "0000-00-00",
    "close_ymd": "0000-00-00",
    "e_status": 0,
    "e_sort": 1131520
  },
  {
    "station_cd": 1131521,
    "station_g_cd": 1131521,
    "station_name": "川井",
    "station_name_k": "",
    "station_name_r": "",
    "line_cd": 11315,
    "pref_cd": 13,
    "post": "198-0102",
    "address": "西多摩郡奥多摩町川井",
    "lon": 139.16429,
    "lat": 35.813697,
    "open_ymd": "0000-00-00",
    "close_ymd": "0000-00-00",
    "e_status": 0,
    "e_sort": 1131521
  },
  {
    "station_cd": 1131522,
    "station_g_cd": 1131522,
    "station_name": "古里",
    "station_name_k": "",
    "station_name_r": "",
    "line_cd": 11315,
    "pref_cd": 13,
    "post": "198-0105",
    "address": "西多摩郡奥多摩町小丹波",
    "lon": 139.152102,
    "lat": 35.816247,
    "open_ymd": "0000-00-00",
    "close_ymd": "0000-00-00",
    "e_status": 0,
    "e_sort": 1131522
  },
  {
    "station_cd": 1131523,
    "station_g_cd": 1131523,
    "station_name": "鳩ノ巣",
    "station_name_k": "",
    "station_name_r": "",
    "line_cd": 11315,
    "pref_cd": 13,
    "post": "198-0106",
    "address": "西多摩郡奥多摩町棚沢",
    "lon": 139.128932,
    "lat": 35.815127,
    "open_ymd": "0000-00-00",
    "close_ymd": "0000-00-00",
    "e_status": 0,
    "e_sort": 1131523
  },
  {
    "station_cd": 1131524,
    "station_g_cd": 1131524,
    "station_name": "白丸",
    "station_name_k": "",
    "station_name_r": "",
    "line_cd": 11315,
    "pref_cd": 13,
    "post": "198-0107",
    "address": "西多摩郡奥多摩町白丸",
    "lon": 139.114861,
    "lat": 35.811735,
    "open_ymd": "0000-00-00",
    "close_ymd": "0000-00-00",
    "e_status": 0,
    "e_sort": 1131524
  },
  {
    "station_cd": 1131525,
    "station_g_cd": 1131525,
    "station_name": "奥多摩",
    "station_name_k": "",
    "station_name_r": "",
    "line_cd": 11315,
    "pref_cd": 13,
    "post": "198-0212",
    "address": "西多摩郡奥多摩町氷川",
    "lon": 139.096961,
    "lat": 35.809357,
    "open_ymd": "0000-00-00",
    "close_ymd": "0000-00-00",
    "e_status": 0,
    "e_sort": 1131525
  },
  {
    "station_cd": 1131602,
    "station_g_cd": 1131602,
    "station_name": "熊川",
    "station_name_k": "",
    "station_name_r": "",
    "line_cd": 11316,
    "pref_cd": 13,
    "post": "197-0003",
    "address": "福生市熊川北",
    "lon": 139.33584,
    "lat": 35.728321,
    "open_ymd": "0000-00-00",
    "close_ymd": "0000-00-00",
    "e_status": 0,
    "e_sort": 1131602
  },
  {
    "station_cd": 1131603,
    "station_g_cd": 1131603,
    "station_name": "東秋留",
    "station_name_k": "",
    "station_name_r": "",
    "line_cd": 11316,
    "pref_cd": 13,
    "post": "197-0823",
    "address": "あきる野市野辺",
    "lon": 139.311665,
    "lat": 35.725904,
    "open_ymd": "0000-00-00",
    "close_ymd": "0000-00-00",
    "e_status": 0,
    "e_sort": 1131603
  },
  {
    "station_cd": 1131604,
    "station_g_cd": 1131604,
    "station_name": "秋川",
    "station_name_k": "",
    "station_name_r": "",
    "line_cd": 11316,
    "pref_cd": 13,
    "post": "197-0827",
    "address": "あきる野市油平",
    "lon": 139.286715,
    "lat": 35.727998,
    "open_ymd": "0000-00-00",
    "close_ymd": "0000-00-00",
    "e_status": 0,
    "e_sort": 1131604
  },
  {
    "station_cd": 1131605,
    "station_g_cd": 1131605,
    "station_name": "武蔵引田",
    "station_name_k": "",
    "station_name_r": "",
    "line_cd": 11316,
    "pref_cd": 13,
    "post": "190-0100",
    "address": "あきる野市下引田",
    "lon": 139.269907,
    "lat": 35.729711,
    "open_ymd": "0000-00-00",
    "close_ymd": "0000-00-00",
    "e_status": 0,
    "e_sort": 1131605
  },
  {
    "station_cd": 1131606,
    "station_g_cd": 1131606,
    "station_name": "武蔵増戸",
    "station_name_k": "",
    "station_name_r": "",
    "line_cd": 11316,
    "pref_cd": 13,
    "post": "190-0142",
    "address": "あきる野市伊奈",
    "lon": 139.256355,
    "lat": 35.730961,
    "open_ymd": "0000-00-00",
    "close_ymd": "0000-00-00",
    "e_status": 0,
    "e_sort": 1131606
  },
  {
    "station_cd": 1131607,
    "station_g_cd": 1131607,
    "station_name": "武蔵五日市",
    "station_name_k": "",
    "station_name_r": "",
    "line_cd": 11316,
    "pref_cd": 13,
    "post": "190-0163",
    "address": "あきる野市舘谷",
    "lon": 139.228039,
    "lat": 35.732248,
    "open_ymd": "0000-00-00",
    "close_ymd": "0000-00-00",
    "e_status": 0,
    "e_sort": 1131607
  },
  {
    "station_cd": 1131702,
    "station_g_cd": 1131702,
    "station_name": "北八王子",
    "station_name_k": "",
    "station_name_r": "",
    "line_cd": 11317,
    "pref_cd": 13,
    "post": "192-0032",
    "address": "八王子市石川町",
    "lon": 139.363348,
    "lat": 35.669232,
    "open_ymd": "0000-00-00",
    "close_ymd": "0000-00-00",
    "e_status": 0,
    "e_sort": 1131702
  },
  {
    "station_cd": 1131703,
    "station_g_cd": 1131703,
    "station_name": "小宮",
    "station_name_k": "",
    "station_name_r": "",
    "line_cd": 11317,
    "pref_cd": 13,
    "post": "192-0031",
    "address": "八王子市小宮町",
    "lon": 139.368481,
    "lat": 35.685799,
    "open_ymd": "0000-00-00",
    "close_ymd": "0000-00-00",
    "e_status": 0,
    "e_sort": 1131703
  },
  {
    "station_cd": 1131705,
    "station_g_cd": 1131705,
    "station_name": "東福生",
    "station_name_k": "",
    "station_name_r": "",
    "line_cd": 11317,
    "pref_cd": 13,
    "post": "197-0013",
    "address": "福生市武蔵野台１丁目",
    "lon": 139.33594,
    "lat": 35.745811,
    "open_ymd": "0000-00-00",
    "close_ymd": "0000-00-00",
    "e_status": 0,
    "e_sort": 1131705
  },
  {
    "station_cd": 1131706,
    "station_g_cd": 1131706,
    "station_name": "箱根ケ崎",
    "station_name_k": "",
    "station_name_r": "",
    "line_cd": 11317,
    "pref_cd": 13,
    "post": "190-1221",
    "address": "東京都西多摩郡瑞穂町大字箱根ケ崎397",
    "lon": 139.346805,
    "lat": 35.771158,
    "open_ymd": "0000-00-00",
    "close_ymd": "0000-00-00",
    "e_status": 0,
    "e_sort": 1131706
  },
  {
    "station_cd": 1131902,
    "station_g_cd": 1131902,
    "station_name": "尾久",
    "station_name_k": "",
    "station_name_r": "",
    "line_cd": 11319,
    "pref_cd": 13,
    "post": "114-0011",
    "address": "北区昭和町１丁目",
    "lon": 139.753846,
    "lat": 35.74683,
    "open_ymd": "0000-00-00",
    "close_ymd": "0000-00-00",
    "e_status": 0,
    "e_sort": 1131902
  },
  {
    "station_cd": 1131903,
    "station_g_cd": 1131903,
    "station_name": "赤羽",
    "station_name_k": "",
    "station_name_r": "",
    "line_cd": 11319,
    "pref_cd": 13,
    "post": "115-0045",
    "address": "北区赤羽１丁目",
    "lon": 139.720928,
    "lat": 35.778026,
    "open_ymd": "0000-00-00",
    "close_ymd": "0000-00-00",
    "e_status": 0,
    "e_sort": 1131903
  },
  {
    "station_cd": 1132003,
    "station_g_cd": 1132003,
    "station_name": "三河島",
    "station_name_k": "",
    "station_name_r": "",
    "line_cd": 11320,
    "pref_cd": 13,
    "post": "116-0013",
    "address": "荒川区西日暮里１丁目",
    "lon": 139.777131,
    "lat": 35.733383,
    "open_ymd": "0000-00-00",
    "close_ymd": "0000-00-00",
    "e_status": 0,
    "e_sort": 1132003
  },
  {
    "station_cd": 1132004,
    "station_g_cd": 1132004,
    "station_name": "南千住",
    "station_name_k": "",
    "station_name_r": "",
    "line_cd": 11320,
    "pref_cd": 13,
    "post": "116-0003",
    "address": "荒川区南千住４丁目",
    "lon": 139.7994,
    "lat": 35.734033,
    "open_ymd": "0000-00-00",
    "close_ymd": "0000-00-00",
    "e_status": 0,
    "e_sort": 1132004
  },
  {
    "station_cd": 1132005,
    "station_g_cd": 1132005,
    "station_name": "北千住",
    "station_name_k": "",
    "station_name_r": "",
    "line_cd": 11320,
    "pref_cd": 13,
    "post": "120-0026",
    "address": "足立区千住旭町",
    "lon": 139.804872,
    "lat": 35.749677,
    "open_ymd": "0000-00-00",
    "close_ymd": "0000-00-00",
    "e_status": 0,
    "e_sort": 1132005
  },
  {
    "station_cd": 1132006,
    "station_g_cd": 1132006,
    "station_name": "綾瀬",
    "station_name_k": "",
    "station_name_r": "",
    "line_cd": 11320,
    "pref_cd": 13,
    "post": "120-0005",
    "address": "足立区綾瀬３丁目",
    "lon": 139.825019,
    "lat": 35.762222,
    "open_ymd": "0000-00-00",
    "close_ymd": "0000-00-00",
    "e_status": 0,
    "e_sort": 1132006
  },
  {
    "station_cd": 1132007,
    "station_g_cd": 1132007,
    "station_name": "亀有",
    "station_name_k": "",
    "station_name_r": "",
    "line_cd": 11320,
    "pref_cd": 13,
    "post": "125-0061",
    "address": "葛飾区亀有３",
    "lon": 139.847573,
    "lat": 35.766527,
    "open_ymd": "0000-00-00",
    "close_ymd": "0000-00-00",
    "e_status": 0,
    "e_sort": 1132007
  },
  {
    "station_cd": 1132008,
    "station_g_cd": 1132008,
    "station_name": "金町",
    "station_name_k": "",
    "station_name_r": "",
    "line_cd": 11320,
    "pref_cd": 13,
    "post": "125-0042",
    "address": "葛飾区金町６丁目",
    "lon": 139.870482,
    "lat": 35.769582,
    "open_ymd": "0000-00-00",
    "close_ymd": "0000-00-00",
    "e_status": 0,
    "e_sort": 1132008
  },
  {
    "station_cd": 1132106,
    "station_g_cd": 1132106,
    "station_name": "板橋",
    "station_name_k": "",
    "station_name_r": "",
    "line_cd": 11321,
    "pref_cd": 13,
    "post": "173-0004",
    "address": "板橋区板橋１丁目",
    "lon": 139.719507,
    "lat": 35.745435,
    "open_ymd": "0000-00-00",
    "close_ymd": "0000-00-00",
    "e_status": 0,
    "e_sort": 1132106
  },
  {
    "station_cd": 1132107,
    "station_g_cd": 1132107,
    "station_name": "十条",
    "station_name_k": "",
    "station_name_r": "",
    "line_cd": 11321,
    "pref_cd": 13,
    "post": "114-0034",
    "address": "北区上十条１丁目",
    "lon": 139.722233,
    "lat": 35.760321,
    "open_ymd": "0000-00-00",
    "close_ymd": "0000-00-00",
    "e_status": 0,
    "e_sort": 1132107
  },
  {
    "station_cd": 1132109,
    "station_g_cd": 1132109,
    "station_name": "北赤羽",
    "station_name_k": "",
    "station_name_r": "",
    "line_cd": 11321,
    "pref_cd": 13,
    "post": "115-0052",
    "address": "北区赤羽北２丁目",
    "lon": 139.70569,
    "lat": 35.787007,
    "open_ymd": "0000-00-00",
    "close_ymd": "0000-00-00",
    "e_status": 0,
    "e_sort": 1132109
  },
  {
    "station_cd": 1132110,
    "station_g_cd": 1132110,
    "station_name": "浮間舟渡",
    "station_name_k": "",
    "station_name_r": "",
    "line_cd": 11321,
    "pref_cd": 13,
    "post": "115-0051",
    "address": "北区浮間４丁目",
    "lon": 139.691341,
    "lat": 35.791209,
    "open_ymd": "0000-00-00",
    "close_ymd": "0000-00-00",
    "e_status": 0,
    "e_sort": 1132110
  },
  {
    "station_cd": 1132602,
    "station_g_cd": 1132602,
    "station_name": "八丁堀",
    "station_name_k": "",
    "station_name_r": "",
    "line_cd": 11326,
    "pref_cd": 13,
    "post": "104-0032",
    "address": "中央区八丁堀３丁目",
    "lon": 139.777705,
    "lat": 35.674617,
    "open_ymd": "0000-00-00",
    "close_ymd": "0000-00-00",
    "e_status": 0,
    "e_sort": 1132602
  },
  {
    "station_cd": 1132603,
    "station_g_cd": 1132603,
    "station_name": "越中島",
    "station_name_k": "",
    "station_name_r": "",
    "line_cd": 11326,
    "pref_cd": 13,
    "post": "135-0044",
    "address": "江東区越中島２丁目",
    "lon": 139.792713,
    "lat": 35.667946,
    "open_ymd": "0000-00-00",
    "close_ymd": "0000-00-00",
    "e_status": 0,
    "e_sort": 1132603
  },
  {
    "station_cd": 1132604,
    "station_g_cd": 1132604,
    "station_name": "潮見",
    "station_name_k": "",
    "station_name_r": "",
    "line_cd": 11326,
    "pref_cd": 13,
    "post": "135-0052",
    "address": "江東区潮見２丁目",
    "lon": 139.817341,
    "lat": 35.658702,
    "open_ymd": "0000-00-00",
    "close_ymd": "0000-00-00",
    "e_status": 0,
    "e_sort": 1132604
  },
  {
    "station_cd": 1132605,
    "station_g_cd": 1132605,
    "station_name": "新木場",
    "station_name_k": "",
    "station_name_r": "",
    "line_cd": 11326,
    "pref_cd": 13,
    "post": "136-0082",
    "address": "東京都江東区新木場一丁目5",
    "lon": 139.827402,
    "lat": 35.646172,
    "open_ymd": "0000-00-00",
    "close_ymd": "0000-00-00",
    "e_status": 0,
    "e_sort": 1132605
  },
  {
    "station_cd": 1132606,
    "station_g_cd": 1132606,
    "station_name": "葛西臨海公園",
    "station_name_k": "",
    "station_name_r": "",
    "line_cd": 11326,
    "pref_cd": 13,
    "post": "134-0086",
    "address": "江戸川区臨海町６丁目",
    "lon": 139.861529,
    "lat": 35.644392,
    "open_ymd": "0000-00-00",
    "close_ymd": "0000-00-00",
    "e_status": 0,
    "e_sort": 1132606
  },
  {
    "station_cd": 1133211,
    "station_g_cd": 1133211,
    "station_name": "東十条",
    "station_name_k": "",
    "station_name_r": "",
    "line_cd": 11332,
    "pref_cd": 13,
    "post": "114-0001",
    "address": "北区東十条３丁目",
    "lon": 139.726858,
    "lat": 35.763803,
    "open_ymd": "0000-00-00",
    "close_ymd": "0000-00-00",
    "e_status": 0,
    "e_sort": 1133211
  },
  {
    "station_cd": 1133212,
    "station_g_cd": 1133212,
    "station_name": "王子",
    "station_name_k": "",
    "station_name_r": "",
    "line_cd": 11332,
    "pref_cd": 13,
    "post": "114-0002",
    "address": "北区王子１丁目",
    "lon": 139.73809,
    "lat": 35.752538,
    "open_ymd": "0000-00-00",
    "close_ymd": "0000-00-00",
    "e_status": 0,
    "e_sort": 1133212
  },
  {
    "station_cd": 1133213,
    "station_g_cd": 1133213,
    "station_name": "上中里",
    "station_name_k": "",
    "station_name_r": "",
    "line_cd": 11332,
    "pref_cd": 13,
    "post": "114-0016",
    "address": "北区上中里１丁目",
    "lon": 139.745769,
    "lat": 35.74728,
    "open_ymd": "0000-00-00",
    "close_ymd": "0000-00-00",
    "e_status": 0,
    "e_sort": 1133213
  },
  {
    "station_cd": 1133228,
    "station_g_cd": 1133228,
    "station_name": "大井町",
    "station_name_k": "",
    "station_name_r": "",
    "line_cd": 11332,
    "pref_cd": 13,
    "post": "140-0014",
    "address": "品川区大井１丁目",
    "lon": 139.73485,
    "lat": 35.606257,
    "open_ymd": "0000-00-00",
    "close_ymd": "0000-00-00",
    "e_status": 0,
    "e_sort": 1133228
  },
  {
    "station_cd": 1133229,
    "station_g_cd": 1133229,
    "station_name": "大森",
    "station_name_k": "",
    "station_name_r": "",
    "line_cd": 11332,
    "pref_cd": 13,
    "post": "143-0016",
    "address": "大田区大森北１丁目",
    "lon": 139.728079,
    "lat": 35.588903,
    "open_ymd": "0000-00-00",
    "close_ymd": "0000-00-00",
    "e_status": 0,
    "e_sort": 1133229
  },
  {
    "station_cd": 1133230,
    "station_g_cd": 1133230,
    "station_name": "蒲田",
    "station_name_k": "",
    "station_name_r": "",
    "line_cd": 11332,
    "pref_cd": 13,
    "post": "144-0052",
    "address": "大田区蒲田５丁目",
    "lon": 139.716032,
    "lat": 35.562517,
    "open_ymd": "0000-00-00",
    "close_ymd": "0000-00-00",
    "e_status": 0,
    "e_sort": 1133230
  },
  {
    "station_cd": 2100102,
    "station_g_cd": 2100102,
    "station_name": "北池袋",
    "station_name_k": "",
    "station_name_r": "",
    "line_cd": 21001,
    "pref_cd": 13,
    "post": "170-0011",
    "address": "豊島区池袋本町１-３６-６",
    "lon": 139.716749,
    "lat": 35.741283,
    "open_ymd": "0000-00-00",
    "close_ymd": "0000-00-00",
    "e_status": 0,
    "e_sort": 2100102
  },
  {
    "station_cd": 2100103,
    "station_g_cd": 2100103,
    "station_name": "下板橋",
    "station_name_k": "",
    "station_name_r": "",
    "line_cd": 21001,
    "pref_cd": 13,
    "post": "170-0011",
    "address": "豊島区池袋本町４-４３-１１",
    "lon": 139.714785,
    "lat": 35.745721,
    "open_ymd": "0000-00-00",
    "close_ymd": "0000-00-00",
    "e_status": 0,
    "e_sort": 2100103
  },
  {
    "station_cd": 2100104,
    "station_g_cd": 2100104,
    "station_name": "大山",
    "station_name_k": "",
    "station_name_r": "",
    "line_cd": 21001,
    "pref_cd": 13,
    "post": "173-0023",
    "address": "板橋区大山町４-１",
    "lon": 139.702589,
    "lat": 35.748398,
    "open_ymd": "0000-00-00",
    "close_ymd": "0000-00-00",
    "e_status": 0,
    "e_sort": 2100104
  },
  {
    "station_cd": 2100105,
    "station_g_cd": 2100105,
    "station_name": "中板橋",
    "station_name_k": "",
    "station_name_r": "",
    "line_cd": 21001,
    "pref_cd": 13,
    "post": "173-0021",
    "address": "板橋区弥生町３３-１",
    "lon": 139.694628,
    "lat": 35.756214,
    "open_ymd": "0000-00-00",
    "close_ymd": "0000-00-00",
    "e_status": 0,
    "e_sort": 2100105
  },
  {
    "station_cd": 2100106,
    "station_g_cd": 2100106,
    "station_name": "ときわ台",
    "station_name_k": "",
    "station_name_r": "",
    "line_cd": 21001,
    "pref_cd": 13,
    "post": "174-0071",
    "address": "板橋区常盤台１-４３-１",
    "lon": 139.689015,
    "lat": 35.758771,
    "open_ymd": "0000-00-00",
    "close_ymd": "0000-00-00",
    "e_status": 0,
    "e_sort": 2100106
  },
  {
    "station_cd": 2100107,
    "station_g_cd": 2100107,
    "station_name": "上板橋",
    "station_name_k": "",
    "station_name_r": "",
    "line_cd": 21001,
    "pref_cd": 13,
    "post": "174-0076",
    "address": "板橋区上板橋２-３６-７",
    "lon": 139.67641,
    "lat": 35.763596,
    "open_ymd": "0000-00-00",
    "close_ymd": "0000-00-00",
    "e_status": 0,
    "e_sort": 2100107
  },
  {
    "station_cd": 2100108,
    "station_g_cd": 2100108,
    "station_name": "東武練馬",
    "station_name_k": "",
    "station_name_r": "",
    "line_cd": 21001,
    "pref_cd": 13,
    "post": "175-0083",
    "address": "板橋区徳丸２-２-１４",
    "lon": 139.661964,
    "lat": 35.768698,
    "open_ymd": "0000-00-00",
    "close_ymd": "0000-00-00",
    "e_status": 0,
    "e_sort": 2100108
  },
  {
    "station_cd": 2100109,
    "station_g_cd": 2100109,
    "station_name": "下赤塚",
    "station_name_k": "",
    "station_name_r": "",
    "line_cd": 21001,
    "pref_cd": 13,
    "post": "175-0093",
    "address": "板橋区赤塚新町１-２３-１",
    "lon": 139.644482,
    "lat": 35.770558,
    "open_ymd": "0000-00-00",
    "close_ymd": "0000-00-00",
    "e_status": 0,
    "e_sort": 2100109
  },
  {
    "station_cd": 2100110,
    "station_g_cd": 2100110,
    "station_name": "成増",
    "station_name_k": "",
    "station_name_r": "",
    "line_cd": 21001,
    "pref_cd": 13,
    "post": "175-0094",
    "address": "板橋区成増２-１３-１",
    "lon": 139.632708,
    "lat": 35.777723,
    "open_ymd": "0000-00-00",
    "close_ymd": "0000-00-00",
    "e_status": 0,
    "e_sort": 2100110
  },
  {
    "station_cd": 2100201,
    "station_g_cd": 2100201,
    "station_name": "浅草",
    "station_name_k": "",
    "station_name_r": "",
    "line_cd": 21002,
    "pref_cd": 13,
    "post": "111-0033",
    "address": "東京都台東区花川戸一丁目4-1",
    "lon": 139.798214,
    "lat": 35.711883,
    "open_ymd": "0000-00-00",
    "close_ymd": "0000-00-00",
    "e_status": 0,
    "e_sort": 2100201
  },
  {
    "station_cd": 2100202,
    "station_g_cd": 2100202,
    "station_name": "とうきょうスカイツリー",
    "station_name_k": "",
    "station_name_r": "",
    "line_cd": 21002,
    "pref_cd": 13,
    "post": "131-0045",
    "address": "墨田区押上１丁目",
    "lon": 139.809332,
    "lat": 35.71043,
    "open_ymd": "1902-04-01",
    "close_ymd": "0000-00-00",
    "e_status": 0,
    "e_sort": 2100202
  },
  {
    "station_cd": 2100203,
    "station_g_cd": 2100203,
    "station_name": "押上〈スカイツリー前〉",
    "station_name_k": "",
    "station_name_r": "",
    "line_cd": 21002,
    "pref_cd": 13,
    "post": "131-0045",
    "address": "墨田区押上一丁目",
    "lon": 139.812935,
    "lat": 35.710702,
    "open_ymd": "0000-00-00",
    "close_ymd": "0000-00-00",
    "e_status": 0,
    "e_sort": 2100203
  },
  {
    "station_cd": 2100204,
    "station_g_cd": 2100204,
    "station_name": "曳舟",
    "station_name_k": "",
    "station_name_r": "",
    "line_cd": 21002,
    "pref_cd": 13,
    "post": "131-0032",
    "address": "墨田区東向島２丁目",
    "lon": 139.816634,
    "lat": 35.718418,
    "open_ymd": "0000-00-00",
    "close_ymd": "0000-00-00",
    "e_status": 0,
    "e_sort": 2100204
  },
  {
    "station_cd": 2100205,
    "station_g_cd": 2100205,
    "station_name": "東向島",
    "station_name_k": "",
    "station_name_r": "",
    "line_cd": 21002,
    "pref_cd": 13,
    "post": "131-0032",
    "address": "墨田区東向島４丁目",
    "lon": 139.819306,
    "lat": 35.724324,
    "open_ymd": "0000-00-00",
    "close_ymd": "0000-00-00",
    "e_status": 0,
    "e_sort": 2100205
  },
  {
    "station_cd": 2100206,
    "station_g_cd": 2100206,
    "station_name": "鐘ヶ淵",
    "station_name_k": "",
    "station_name_r": "",
    "line_cd": 21002,
    "pref_cd": 13,
    "post": "131-0031",
    "address": "東京都墨田区墨田5丁目",
    "lon": 139.820344,
    "lat": 35.733712,
    "open_ymd": "0000-00-00",
    "close_ymd": "0000-00-00",
    "e_status": 0,
    "e_sort": 2100206
  },
  {
    "station_cd": 2100207,
    "station_g_cd": 2100207,
    "station_name": "堀切",
    "station_name_k": "",
    "station_name_r": "",
    "line_cd": 21002,
    "pref_cd": 13,
    "post": "120-0023",
    "address": "足立区千住曙町",
    "lon": 139.817727,
    "lat": 35.742977,
    "open_ymd": "0000-00-00",
    "close_ymd": "0000-00-00",
    "e_status": 0,
    "e_sort": 2100207
  },
  {
    "station_cd": 2100208,
    "station_g_cd": 2100208,
    "station_name": "牛田",
    "station_name_k": "",
    "station_name_r": "",
    "line_cd": 21002,
    "pref_cd": 13,
    "post": "120-0023",
    "address": "足立区千住曙町",
    "lon": 139.811816,
    "lat": 35.744555,
    "open_ymd": "0000-00-00",
    "close_ymd": "0000-00-00",
    "e_status": 0,
    "e_sort": 2100208
  },
  {
    "station_cd": 2100210,
    "station_g_cd": 2100210,
    "station_name": "小菅",
    "station_name_k": "",
    "station_name_r": "",
    "line_cd": 21002,
    "pref_cd": 13,
    "post": "120-0015",
    "address": "足立区足立２丁目",
    "lon": 139.812935,
    "lat": 35.759039,
    "open_ymd": "0000-00-00",
    "close_ymd": "0000-00-00",
    "e_status": 0,
    "e_sort": 2100210
  },
  {
    "station_cd": 2100211,
    "station_g_cd": 2100211,
    "station_name": "五反野",
    "station_name_k": "",
    "station_name_r": "",
    "line_cd": 21002,
    "pref_cd": 13,
    "post": "120-0015",
    "address": "足立区足立３丁目",
    "lon": 139.809643,
    "lat": 35.765852,
    "open_ymd": "0000-00-00",
    "close_ymd": "0000-00-00",
    "e_status": 0,
    "e_sort": 2100211
  },
  {
    "station_cd": 2100212,
    "station_g_cd": 2100212,
    "station_name": "梅島",
    "station_name_k": "",
    "station_name_r": "",
    "line_cd": 21002,
    "pref_cd": 13,
    "post": "123-0851",
    "address": "足立区梅田７丁目",
    "lon": 139.797916,
    "lat": 35.772437,
    "open_ymd": "0000-00-00",
    "close_ymd": "0000-00-00",
    "e_status": 0,
    "e_sort": 2100212
  },
  {
    "station_cd": 2100213,
    "station_g_cd": 2100213,
    "station_name": "西新井",
    "station_name_k": "",
    "station_name_r": "",
    "line_cd": 21002,
    "pref_cd": 13,
    "post": "123-0843",
    "address": "足立区西新井栄町２丁目",
    "lon": 139.790372,
    "lat": 35.777323,
    "open_ymd": "0000-00-00",
    "close_ymd": "0000-00-00",
    "e_status": 0,
    "e_sort": 2100213
  },
  {
    "station_cd": 2100214,
    "station_g_cd": 2100214,
    "station_name": "竹ノ塚",
    "station_name_k": "",
    "station_name_r": "",
    "line_cd": 21002,
    "pref_cd": 13,
    "post": "121-0813",
    "address": "足立区竹の塚６丁目",
    "lon": 139.790788,
    "lat": 35.794368,
    "open_ymd": "0000-00-00",
    "close_ymd": "0000-00-00",
    "e_status": 0,
    "e_sort": 2100214
  },
  {
    "station_cd": 2100502,
    "station_g_cd": 2100502,
    "station_name": "小村井",
    "station_name_k": "",
    "station_name_r": "",
    "line_cd": 21005,
    "pref_cd": 13,
    "post": "131-0044",
    "address": "墨田区文花２-２０-１",
    "lon": 139.827595,
    "lat": 35.710316,
    "open_ymd": "0000-00-00",
    "close_ymd": "0000-00-00",
    "e_status": 0,
    "e_sort": 2100502
  },
  {
    "station_cd": 2100503,
    "station_g_cd": 2100503,
    "station_name": "東あずま",
    "station_name_k": "",
    "station_name_r": "",
    "line_cd": 21005,
    "pref_cd": 13,
    "post": "131-0043",
    "address": "墨田区立花４-２３-８",
    "lon": 139.831883,
    "lat": 35.707067,
    "open_ymd": "0000-00-00",
    "close_ymd": "0000-00-00",
    "e_status": 0,
    "e_sort": 2100503
  },
  {
    "station_cd": 2100504,
    "station_g_cd": 2100504,
    "station_name": "亀戸水神",
    "station_name_k": "",
    "station_name_r": "",
    "line_cd": 21005,
    "pref_cd": 13,
    "post": "136-0071",
    "address": "江東区亀戸８-５-１",
    "lon": 139.833422,
    "lat": 35.699976,
    "open_ymd": "0000-00-00",
    "close_ymd": "0000-00-00",
    "e_status": 0,
    "e_sort": 2100504
  },
  {
    "station_cd": 2100602,
    "station_g_cd": 2100602,
    "station_name": "大師前",
    "station_name_k": "",
    "station_name_r": "",
    "line_cd": 21006,
    "pref_cd": 13,
    "post": "123-0841",
    "address": "足立区西新井１-３-１",
    "lon": 139.781647,
    "lat": 35.778989,
    "open_ymd": "0000-00-00",
    "close_ymd": "0000-00-00",
    "e_status": 0,
    "e_sort": 2100602
  },
  {
    "station_cd": 2200102,
    "station_g_cd": 2200102,
    "station_name": "椎名町",
    "station_name_k": "",
    "station_name_r": "",
    "line_cd": 22001,
    "pref_cd": 13,
    "post": "171-0051",
    "address": "豊島区長崎１-１-２２",
    "lon": 139.694363,
    "lat": 35.726572,
    "open_ymd": "0000-00-00",
    "close_ymd": "0000-00-00",
    "e_status": 0,
    "e_sort": 2200102
  },
  {
    "station_cd": 2200103,
    "station_g_cd": 2200103,
    "station_name": "東長崎",
    "station_name_k": "",
    "station_name_r": "",
    "line_cd": 22001,
    "pref_cd": 13,
    "post": "171-0051",
    "address": "豊島区長崎５-１-１",
    "lon": 139.683294,
    "lat": 35.73003,
    "open_ymd": "0000-00-00",
    "close_ymd": "0000-00-00",
    "e_status": 0,
    "e_sort": 2200103
  },
  {
    "station_cd": 2200104,
    "station_g_cd": 2200104,
    "station_name": "江古田",
    "station_name_k": "",
    "station_name_r": "",
    "line_cd": 22001,
    "pref_cd": 13,
    "post": "176-0005",
    "address": "練馬区旭丘１-７８-７",
    "lon": 139.672814,
    "lat": 35.737557,
    "open_ymd": "0000-00-00",
    "close_ymd": "0000-00-00",
    "e_status": 0,
    "e_sort": 2200104
  },
  {
    "station_cd": 2200105,
    "station_g_cd": 2200105,
    "station_name": "桜台",
    "station_name_k": "",
    "station_name_r": "",
    "line_cd": 22001,
    "pref_cd": 13,
    "post": "176-0002",
    "address": "練馬区桜台１-５-１",
    "lon": 139.662602,
    "lat": 35.738797,
    "open_ymd": "0000-00-00",
    "close_ymd": "0000-00-00",
    "e_status": 0,
    "e_sort": 2200105
  },
  {
    "station_cd": 2200106,
    "station_g_cd": 2200106,
    "station_name": "練馬",
    "station_name_k": "",
    "station_name_r": "",
    "line_cd": 22001,
    "pref_cd": 13,
    "post": "176-0001",
    "address": "練馬区練馬１-３-５",
    "lon": 139.654368,
    "lat": 35.737893,
    "open_ymd": "0000-00-00",
    "close_ymd": "0000-00-00",
    "e_status": 0,
    "e_sort": 2200106
  },
  {
    "station_cd": 2200107,
    "station_g_cd": 2200107,
    "station_name": "中村橋",
    "station_name_k": "",
    "station_name_r": "",
    "line_cd": 22001,
    "pref_cd": 13,
    "post": "176-0023",
    "address": "練馬区中村北４-２-１",
    "lon": 139.637456,
    "lat": 35.736767,
    "open_ymd": "0000-00-00",
    "close_ymd": "0000-00-00",
    "e_status": 0,
    "e_sort": 2200107
  },
  {
    "station_cd": 2200108,
    "station_g_cd": 2200108,
    "station_name": "富士見台",
    "station_name_k": "",
    "station_name_r": "",
    "line_cd": 22001,
    "pref_cd": 13,
    "post": "176-0021",
    "address": "練馬区貫井３-７-４",
    "lon": 139.62969,
    "lat": 35.735867,
    "open_ymd": "0000-00-00",
    "close_ymd": "0000-00-00",
    "e_status": 0,
    "e_sort": 2200108
  },
  {
    "station_cd": 2200109,
    "station_g_cd": 2200109,
    "station_name": "練馬高野台",
    "station_name_k": "",
    "station_name_r": "",
    "line_cd": 22001,
    "pref_cd": 13,
    "post": "177-0033",
    "address": "練馬区高野台１-７-２７",
    "lon": 139.616749,
    "lat": 35.740622,
    "open_ymd": "0000-00-00",
    "close_ymd": "0000-00-00",
    "e_status": 0,
    "e_sort": 2200109
  },
  {
    "station_cd": 2200110,
    "station_g_cd": 2200110,
    "station_name": "石神井公園",
    "station_name_k": "",
    "station_name_r": "",
    "line_cd": 22001,
    "pref_cd": 13,
    "post": "177-0041",
    "address": "練馬区石神井町３-２３-１０",
    "lon": 139.606981,
    "lat": 35.743563,
    "open_ymd": "0000-00-00",
    "close_ymd": "0000-00-00",
    "e_status": 0,
    "e_sort": 2200110
  },
  {
    "station_cd": 2200111,
    "station_g_cd": 2200111,
    "station_name": "大泉学園",
    "station_name_k": "",
    "station_name_r": "",
    "line_cd": 22001,
    "pref_cd": 13,
    "post": "178-0063",
    "address": "練馬区東大泉１-２９-７",
    "lon": 139.586732,
    "lat": 35.749406,
    "open_ymd": "0000-00-00",
    "close_ymd": "0000-00-00",
    "e_status": 0,
    "e_sort": 2200111
  },
  {
    "station_cd": 2200112,
    "station_g_cd": 2200112,
    "station_name": "保谷",
    "station_name_k": "",
    "station_name_r": "",
    "line_cd": 22001,
    "pref_cd": 13,
    "post": "202-0012",
    "address": "西東京市東町３-１４-３０",
    "lon": 139.567753,
    "lat": 35.748222,
    "open_ymd": "0000-00-00",
    "close_ymd": "0000-00-00",
    "e_status": 0,
    "e_sort": 2200112
  },
  {
    "station_cd": 2200113,
    "station_g_cd": 2200113,
    "station_name": "ひばりヶ丘",
    "station_name_k": "",
    "station_name_r": "",
    "line_cd": 22001,
    "pref_cd": 13,
    "post": "202-0005",
    "address": "東京都西東京市住吉町三丁目",
    "lon": 139.545852,
    "lat": 35.751485,
    "open_ymd": "0000-00-00",
    "close_ymd": "0000-00-00",
    "e_status": 0,
    "e_sort": 2200113
  },
  {
    "station_cd": 2200114,
    "station_g_cd": 2200114,
    "station_name": "東久留米",
    "station_name_k": "",
    "station_name_r": "",
    "line_cd": 22001,
    "pref_cd": 13,
    "post": "203-0014",
    "address": "東久留米市東本町１-８",
    "lon": 139.533739,
    "lat": 35.760445,
    "open_ymd": "0000-00-00",
    "close_ymd": "0000-00-00",
    "e_status": 0,
    "e_sort": 2200114
  },
  {
    "station_cd": 2200115,
    "station_g_cd": 2200115,
    "station_name": "清瀬",
    "station_name_k": "",
    "station_name_r": "",
    "line_cd": 22001,
    "pref_cd": 13,
    "post": "204-0021",
    "address": "清瀬市元町１-２-４",
    "lon": 139.519917,
    "lat": 35.772221,
    "open_ymd": "0000-00-00",
    "close_ymd": "0000-00-00",
    "e_status": 0,
    "e_sort": 2200115
  },
  {
    "station_cd": 2200116,
    "station_g_cd": 2200116,
    "station_name": "秋津",
    "station_name_k": "",
    "station_name_r": "",
    "line_cd": 22001,
    "pref_cd": 13,
    "post": "189-0001",
    "address": "東村山市秋津町５-７-８",
    "lon": 139.496539,
    "lat": 35.778614,
    "open_ymd": "0000-00-00",
    "close_ymd": "0000-00-00",
    "e_status": 0,
    "e_sort": 2200116
  },
  {
    "station_cd": 2200301,
    "station_g_cd": 2200301,
    "station_name": "小竹向原",
    "station_name_k": "",
    "station_name_r": "",
    "line_cd": 22003,
    "pref_cd": 13,
    "post": "176-0004",
    "address": "東京都練馬区小竹町二丁目16-15",
    "lon": 139.678572,
    "lat": 35.743803,
    "open_ymd": "0000-00-00",
    "close_ymd": "0000-00-00",
    "e_status": 0,
    "e_sort": 2200301
  },
  {
    "station_cd": 2200302,
    "station_g_cd": 2200302,
    "station_name": "新桜台",
    "station_name_k": "",
    "station_name_r": "",
    "line_cd": 22003,
    "pref_cd": 13,
    "post": "176-0002",
    "address": "練馬区桜台１-２８-１１",
    "lon": 139.6683,
    "lat": 35.74077,
    "open_ymd": "0000-00-00",
    "close_ymd": "0000-00-00",
    "e_status": 0,
    "e_sort": 2200302
  },
  {
    "station_cd": 2200402,
    "station_g_cd": 2200402,
    "station_name": "豊島園",
    "station_name_k": "",
    "station_name_r": "",
    "line_cd": 22004,
    "pref_cd": 13,
    "post": "176-0001",
    "address": "練馬区練馬４-１６-５",
    "lon": 139.647979,
    "lat": 35.742054,
    "open_ymd": "0000-00-00",
    "close_ymd": "0000-00-00",
    "e_status": 0,
    "e_sort": 2200402
  },
  {
    "station_cd": 2200601,
    "station_g_cd": 2200601,
    "station_name": "多摩湖",
    "station_name_k": "",
    "station_name_r": "",
    "line_cd": 22006,
    "pref_cd": 13,
    "post": "189-0026",
    "address": "東村山市多摩湖町３-１５-１８",
    "lon": 139.442747,
    "lat": 35.765881,
    "open_ymd": "0000-00-00",
    "close_ymd": "0000-00-00",
    "e_status": 0,
    "e_sort": 2200601
  },
  {
    "station_cd": 2200701,
    "station_g_cd": 2200701,
    "station_name": "西武新宿",
    "station_name_k": "",
    "station_name_r": "",
    "line_cd": 22007,
    "pref_cd": 13,
    "post": "160-0021",
    "address": "新宿区歌舞伎町１-３０-１",
    "lon": 139.7,
    "lat": 35.696254,
    "open_ymd": "0000-00-00",
    "close_ymd": "0000-00-00",
    "e_status": 0,
    "e_sort": 2200701
  },
  {
    "station_cd": 2200703,
    "station_g_cd": 2200703,
    "station_name": "下落合",
    "station_name_k": "",
    "station_name_r": "",
    "line_cd": 22007,
    "pref_cd": 13,
    "post": "161-0033",
    "address": "新宿区下落合１-１６-１",
    "lon": 139.695391,
    "lat": 35.715846,
    "open_ymd": "0000-00-00",
    "close_ymd": "0000-00-00",
    "e_status": 0,
    "e_sort": 2200703
  },
  {
    "station_cd": 2200704,
    "station_g_cd": 2200704,
    "station_name": "中井",
    "station_name_k": "",
    "station_name_r": "",
    "line_cd": 22007,
    "pref_cd": 13,
    "post": "161-0032",
    "address": "新宿区中落合１-１９-１",
    "lon": 139.686967,
    "lat": 35.715106,
    "open_ymd": "0000-00-00",
    "close_ymd": "0000-00-00",
    "e_status": 0,
    "e_sort": 2200704
  },
  {
    "station_cd": 2200705,
    "station_g_cd": 2200705,
    "station_name": "新井薬師前",
    "station_name_k": "",
    "station_name_r": "",
    "line_cd": 22007,
    "pref_cd": 13,
    "post": "164-0002",
    "address": "中野区上高田５-４３-２０",
    "lon": 139.672582,
    "lat": 35.715778,
    "open_ymd": "0000-00-00",
    "close_ymd": "0000-00-00",
    "e_status": 0,
    "e_sort": 2200705
  },
  {
    "station_cd": 2200706,
    "station_g_cd": 2200706,
    "station_name": "沼袋",
    "station_name_k": "",
    "station_name_r": "",
    "line_cd": 22007,
    "pref_cd": 13,
    "post": "165-0025",
    "address": "中野区沼袋１-３５-１",
    "lon": 139.663841,
    "lat": 35.719458,
    "open_ymd": "0000-00-00",
    "close_ymd": "0000-00-00",
    "e_status": 0,
    "e_sort": 2200706
  },
  {
    "station_cd": 2200707,
    "station_g_cd": 2200707,
    "station_name": "野方",
    "station_name_k": "",
    "station_name_r": "",
    "line_cd": 22007,
    "pref_cd": 13,
    "post": "165-0027",
    "address": "中野区野方６-３-３",
    "lon": 139.652733,
    "lat": 35.719658,
    "open_ymd": "0000-00-00",
    "close_ymd": "0000-00-00",
    "e_status": 0,
    "e_sort": 2200707
  },
  {
    "station_cd": 2200708,
    "station_g_cd": 2200708,
    "station_name": "都立家政",
    "station_name_k": "",
    "station_name_r": "",
    "line_cd": 22007,
    "pref_cd": 13,
    "post": "165-0032",
    "address": "中野区鷺宮１-１６-１",
    "lon": 139.644839,
    "lat": 35.722313,
    "open_ymd": "0000-00-00",
    "close_ymd": "0000-00-00",
    "e_status": 0,
    "e_sort": 2200708
  },
  {
    "station_cd": 2200709,
    "station_g_cd": 2200709,
    "station_name": "鷺ノ宮",
    "station_name_k": "",
    "station_name_r": "",
    "line_cd": 22007,
    "pref_cd": 13,
    "post": "165-0032",
    "address": "中野区鷺宮３-１５-１",
    "lon": 139.63892,
    "lat": 35.722605,
    "open_ymd": "0000-00-00",
    "close_ymd": "0000-00-00",
    "e_status": 0,
    "e_sort": 2200709
  },
  {
    "station_cd": 2200710,
    "station_g_cd": 2200710,
    "station_name": "下井草",
    "station_name_k": "",
    "station_name_r": "",
    "line_cd": 22007,
    "pref_cd": 13,
    "post": "167-0022",
    "address": "杉並区下井草２-４４-１０",
    "lon": 139.624688,
    "lat": 35.723852,
    "open_ymd": "0000-00-00",
    "close_ymd": "0000-00-00",
    "e_status": 0,
    "e_sort": 2200710
  },
  {
    "station_cd": 2200711,
    "station_g_cd": 2200711,
    "station_name": "井荻",
    "station_name_k": "",
    "station_name_r": "",
    "line_cd": 22007,
    "pref_cd": 13,
    "post": "167-0022",
    "address": "杉並区下井草５-２３-１５",
    "lon": 139.615303,
    "lat": 35.72469,
    "open_ymd": "0000-00-00",
    "close_ymd": "0000-00-00",
    "e_status": 0,
    "e_sort": 2200711
  },
  {
    "station_cd": 2200712,
    "station_g_cd": 2200712,
    "station_name": "上井草",
    "station_name_k": "",
    "station_name_r": "",
    "line_cd": 22007,
    "pref_cd": 13,
    "post": "167-0023",
    "address": "杉並区上井草３-３２-１",
    "lon": 139.602937,
    "lat": 35.725326,
    "open_ymd": "0000-00-00",
    "close_ymd": "0000-00-00",
    "e_status": 0,
    "e_sort": 2200712
  },
  {
    "station_cd": 2200713,
    "station_g_cd": 2200713,
    "station_name": "上石神井",
    "station_name_k": "",
    "station_name_r": "",
    "line_cd": 22007,
    "pref_cd": 13,
    "post": "177-0044",
    "address": "練馬区上石神井１-２-４５",
    "lon": 139.592266,
    "lat": 35.726189,
    "open_ymd": "0000-00-00",
    "close_ymd": "0000-00-00",
    "e_status": 0,
    "e_sort": 2200713
  },
  {
    "station_cd": 2200714,
    "station_g_cd": 2200714,
    "station_name": "武蔵関",
    "station_name_k": "",
    "station_name_r": "",
    "line_cd": 22007,
    "pref_cd": 13,
    "post": "177-0051",
    "address": "練馬区関町北２-２９-１",
    "lon": 139.576417,
    "lat": 35.7276,
    "open_ymd": "0000-00-00",
    "close_ymd": "0000-00-00",
    "e_status": 0,
    "e_sort": 2200714
  },
  {
    "station_cd": 2200715,
    "station_g_cd": 2200715,
    "station_name": "東伏見",
    "station_name_k": "",
    "station_name_r": "",
    "line_cd": 22007,
    "pref_cd": 13,
    "post": "202-0021",
    "address": "西東京市東伏見２-５-１",
    "lon": 139.563529,
    "lat": 35.728761,
    "open_ymd": "0000-00-00",
    "close_ymd": "0000-00-00",
    "e_status": 0,
    "e_sort": 2200715
  },
  {
    "station_cd": 2200716,
    "station_g_cd": 2200716,
    "station_name": "西武柳沢",
    "station_name_k": "",
    "station_name_r": "",
    "line_cd": 22007,
    "pref_cd": 13,
    "post": "202-0015",
    "address": "西東京市保谷町３-１１-２４",
    "lon": 139.552477,
    "lat": 35.728621,
    "open_ymd": "0000-00-00",
    "close_ymd": "0000-00-00",
    "e_status": 0,
    "e_sort": 2200716
  },
  {
    "station_cd": 2200717,
    "station_g_cd": 2200717,
    "station_name": "田無",
    "station_name_k": "",
    "station_name_r": "",
    "line_cd": 22007,
    "pref_cd": 13,
    "post": "188-0011",
    "address": "西東京市田無町４-１-１",
    "lon": 139.539259,
    "lat": 35.727307,
    "open_ymd": "0000-00-00",
    "close_ymd": "0000-00-00",
    "e_status": 0,
    "e_sort": 2200717
  },
  {
    "station_cd": 2200718,
    "station_g_cd": 2200718,
    "station_name": "花小金井",
    "station_name_k": "",
    "station_name_r": "",
    "line_cd": 22007,
    "pref_cd": 13,
    "post": "187-0002",
    "address": "小平市花小金井１-１０-５",
    "lon": 139.513228,
    "lat": 35.726129,
    "open_ymd": "0000-00-00",
    "close_ymd": "0000-00-00",
    "e_status": 0,
    "e_sort": 2200718
  },
  {
    "station_cd": 2200719,
    "station_g_cd": 2200719,
    "station_name": "小平",
    "station_name_k": "",
    "station_name_r": "",
    "line_cd": 22007,
    "pref_cd": 13,
    "post": "187-0041",
    "address": "小平市美園町１-３４-１",
    "lon": 139.488491,
    "lat": 35.736963,
    "open_ymd": "0000-00-00",
    "close_ymd": "0000-00-00",
    "e_status": 0,
    "e_sort": 2200719
  },
  {
    "station_cd": 2200720,
    "station_g_cd": 2200720,
    "station_name": "久米川",
    "station_name_k": "",
    "station_name_r": "",
    "line_cd": 22007,
    "pref_cd": 13,
    "post": "189-0013",
    "address": "東村山市栄町２-３-１",
    "lon": 139.472653,
    "lat": 35.749575,
    "open_ymd": "0000-00-00",
    "close_ymd": "0000-00-00",
    "e_status": 0,
    "e_sort": 2200720
  },
  {
    "station_cd": 2200721,
    "station_g_cd": 2200721,
    "station_name": "東村山",
    "station_name_k": "",
    "station_name_r": "",
    "line_cd": 22007,
    "pref_cd": 13,
    "post": "189-0014",
    "address": "東村山市本町２-３-３２",
    "lon": 139.465839,
    "lat": 35.76006,
    "open_ymd": "0000-00-00",
    "close_ymd": "0000-00-00",
    "e_status": 0,
    "e_sort": 2200721
  },
  {
    "station_cd": 2200802,
    "station_g_cd": 2200802,
    "station_name": "萩山",
    "station_name_k": "",
    "station_name_r": "",
    "line_cd": 22008,
    "pref_cd": 13,
    "post": "189-0012",
    "address": "東村山市萩山町２-１-１",
    "lon": 139.476903,
    "lat": 35.740759,
    "open_ymd": "0000-00-00",
    "close_ymd": "0000-00-00",
    "e_status": 0,
    "e_sort": 2200802
  },
  {
    "station_cd": 2200803,
    "station_g_cd": 2200803,
    "station_name": "小川",
    "station_name_k": "",
    "station_name_r": "",
    "line_cd": 22008,
    "pref_cd": 13,
    "post": "187-0031",
    "address": "小平市小川東町１-２０-１",
    "lon": 139.463493,
    "lat": 35.737573,
    "open_ymd": "0000-00-00",
    "close_ymd": "0000-00-00",
    "e_status": 0,
    "e_sort": 2200803
  },
  {
    "station_cd": 2200804,
    "station_g_cd": 2200804,
    "station_name": "東大和市",
    "station_name_k": "",
    "station_name_r": "",
    "line_cd": 22008,
    "pref_cd": 13,
    "post": "207-0022",
    "address": "東大和市桜が丘１-１４１５-１",
    "lon": 139.434249,
    "lat": 35.732829,
    "open_ymd": "0000-00-00",
    "close_ymd": "0000-00-00",
    "e_status": 0,
    "e_sort": 2200804
  },
  {
    "station_cd": 2200805,
    "station_g_cd": 2200805,
    "station_name": "玉川上水",
    "station_name_k": "",
    "station_name_r": "",
    "line_cd": 22008,
    "pref_cd": 13,
    "post": "190-0002",
    "address": "立川市幸町６-３６-１",
    "lon": 139.418435,
    "lat": 35.731751,
    "open_ymd": "0000-00-00",
    "close_ymd": "0000-00-00",
    "e_status": 0,
    "e_sort": 2200805
  },
  {
    "station_cd": 2200806,
    "station_g_cd": 2200806,
    "station_name": "武蔵砂川",
    "station_name_k": "",
    "station_name_r": "",
    "line_cd": 22008,
    "pref_cd": 13,
    "post": "190-0032",
    "address": "立川市上砂町５-４４-４",
    "lon": 139.392319,
    "lat": 35.728876,
    "open_ymd": "0000-00-00",
    "close_ymd": "0000-00-00",
    "e_status": 0,
    "e_sort": 2200806
  },
  {
    "station_cd": 2200807,
    "station_g_cd": 2200807,
    "station_name": "西武立川",
    "station_name_k": "",
    "station_name_r": "",
    "line_cd": 22008,
    "pref_cd": 13,
    "post": "190-0034",
    "address": "立川市西砂町１-２１-２",
    "lon": 139.370124,
    "lat": 35.7262,
    "open_ymd": "0000-00-00",
    "close_ymd": "0000-00-00",
    "e_status": 0,
    "e_sort": 2200807
  },
  {
    "station_cd": 2200902,
    "station_g_cd": 2200902,
    "station_name": "西武園",
    "station_name_k": "",
    "station_name_r": "",
    "line_cd": 22009,
    "pref_cd": 13,
    "post": "189-0026",
    "address": "東村山市多摩湖町４-２９-１",
    "lon": 139.448904,
    "lat": 35.767684,
    "open_ymd": "0000-00-00",
    "close_ymd": "0000-00-00",
    "e_status": 0,
    "e_sort": 2200902
  },
  {
    "station_cd": 2201002,
    "station_g_cd": 2201002,
    "station_name": "恋ヶ窪",
    "station_name_k": "",
    "station_name_r": "",
    "line_cd": 22010,
    "pref_cd": 13,
    "post": "185-0003",
    "address": "東京都国分寺市戸倉一丁目1-4",
    "lon": 139.463944,
    "lat": 35.711385,
    "open_ymd": "0000-00-00",
    "close_ymd": "0000-00-00",
    "e_status": 0,
    "e_sort": 2201002
  },
  {
    "station_cd": 2201003,
    "station_g_cd": 2201003,
    "station_name": "鷹の台",
    "station_name_k": "",
    "station_name_r": "",
    "line_cd": 22010,
    "pref_cd": 13,
    "post": "187-0024",
    "address": "小平市たかの台４５-４",
    "lon": 139.461155,
    "lat": 35.723097,
    "open_ymd": "0000-00-00",
    "close_ymd": "0000-00-00",
    "e_status": 0,
    "e_sort": 2201003
  },
  {
    "station_cd": 2201102,
    "station_g_cd": 2201102,
    "station_name": "一橋学園",
    "station_name_k": "",
    "station_name_r": "",
    "line_cd": 22011,
    "pref_cd": 13,
    "post": "187-0045",
    "address": "小平市学園西町２-１-１",
    "lon": 139.480039,
    "lat": 35.72217,
    "open_ymd": "0000-00-00",
    "close_ymd": "0000-00-00",
    "e_status": 0,
    "e_sort": 2201102
  },
  {
    "station_cd": 2201103,
    "station_g_cd": 2201103,
    "station_name": "青梅街道",
    "station_name_k": "",
    "station_name_r": "",
    "line_cd": 22011,
    "pref_cd": 13,
    "post": "187-0032",
    "address": "小平市小川町２-１８４６",
    "lon": 139.476628,
    "lat": 35.73098,
    "open_ymd": "0000-00-00",
    "close_ymd": "0000-00-00",
    "e_status": 0,
    "e_sort": 2201103
  },
  {
    "station_cd": 2201106,
    "station_g_cd": 2201106,
    "station_name": "八坂",
    "station_name_k": "",
    "station_name_r": "",
    "line_cd": 22011,
    "pref_cd": 13,
    "post": "189-0013",
    "address": "東村山市栄町３-１８-１",
    "lon": 139.467676,
    "lat": 35.744925,
    "open_ymd": "0000-00-00",
    "close_ymd": "0000-00-00",
    "e_status": 0,
    "e_sort": 2201106
  },
  {
    "station_cd": 2201107,
    "station_g_cd": 2201107,
    "station_name": "武蔵大和",
    "station_name_k": "",
    "station_name_r": "",
    "line_cd": 22011,
    "pref_cd": 13,
    "post": "189-0025",
    "address": "東村山市廻田町３-９-１９",
    "lon": 139.444008,
    "lat": 35.756427,
    "open_ymd": "0000-00-00",
    "close_ymd": "0000-00-00",
    "e_status": 0,
    "e_sort": 2201107
  },
  {
    "station_cd": 2201202,
    "station_g_cd": 2201202,
    "station_name": "新小金井",
    "station_name_k": "",
    "station_name_r": "",
    "line_cd": 22012,
    "pref_cd": 13,
    "post": "184-0011",
    "address": "小金井市東町４-２４-１",
    "lon": 139.526603,
    "lat": 35.695908,
    "open_ymd": "0000-00-00",
    "close_ymd": "0000-00-00",
    "e_status": 0,
    "e_sort": 2201202
  },
  {
    "station_cd": 2201203,
    "station_g_cd": 2201203,
    "station_name": "多磨",
    "station_name_k": "",
    "station_name_r": "",
    "line_cd": 22012,
    "pref_cd": 13,
    "post": "183-0004",
    "address": "府中市紅葉丘３-４２-２",
    "lon": 139.51713,
    "lat": 35.676821,
    "open_ymd": "0000-00-00",
    "close_ymd": "0000-00-00",
    "e_status": 0,
    "e_sort": 2201203
  },
  {
    "station_cd": 2201204,
    "station_g_cd": 2201204,
    "station_name": "白糸台",
    "station_name_k": "",
    "station_name_r": "",
    "line_cd": 22012,
    "pref_cd": 13,
    "post": "183-0011",
    "address": "府中市白糸台２-７１-６",
    "lon": 139.509862,
    "lat": 35.666517,
    "open_ymd": "0000-00-00",
    "close_ymd": "0000-00-00",
    "e_status": 0,
    "e_sort": 2201204
  },
  {
    "station_cd": 2201205,
    "station_g_cd": 2201205,
    "station_name": "競艇場前",
    "station_name_k": "",
    "station_name_r": "",
    "line_cd": 22012,
    "pref_cd": 13,
    "post": "183-0013",
    "address": "府中市小柳町４-１０-１１",
    "lon": 139.499721,
    "lat": 35.656232,
    "open_ymd": "0000-00-00",
    "close_ymd": "0000-00-00",
    "e_status": 0,
    "e_sort": 2201205
  },
  {
    "station_cd": 2201206,
    "station_g_cd": 2201206,
    "station_name": "是政",
    "station_name_k": "",
    "station_name_r": "",
    "line_cd": 22012,
    "pref_cd": 13,
    "post": "183-0014",
    "address": "府中市是政５-８-２",
    "lon": 139.488592,
    "lat": 35.656242,
    "open_ymd": "0000-00-00",
    "close_ymd": "0000-00-00",
    "e_status": 0,
    "e_sort": 2201206
  },
  {
    "station_cd": 2300101,
    "station_g_cd": 2300101,
    "station_name": "京成上野",
    "station_name_k": "",
    "station_name_r": "",
    "line_cd": 23001,
    "pref_cd": 13,
    "post": "110-0007",
    "address": "東京都台東区上野公園1-60",
    "lon": 139.773571,
    "lat": 35.711232,
    "open_ymd": "0000-00-00",
    "close_ymd": "0000-00-00",
    "e_status": 0,
    "e_sort": 2300101
  },
  {
    "station_cd": 2300103,
    "station_g_cd": 2300103,
    "station_name": "新三河島",
    "station_name_k": "",
    "station_name_r": "",
    "line_cd": 23001,
    "pref_cd": 13,
    "post": "116-0013",
    "address": "荒川区西日暮里６-２-１",
    "lon": 139.773834,
    "lat": 35.73714,
    "open_ymd": "0000-00-00",
    "close_ymd": "0000-00-00",
    "e_status": 0,
    "e_sort": 2300103
  },
  {
    "station_cd": 2300104,
    "station_g_cd": 2300104,
    "station_name": "町屋",
    "station_name_k": "",
    "station_name_r": "",
    "line_cd": 23001,
    "pref_cd": 13,
    "post": "116-0001",
    "address": "荒川区町屋１丁目",
    "lon": 139.781499,
    "lat": 35.742354,
    "open_ymd": "0000-00-00",
    "close_ymd": "0000-00-00",
    "e_status": 0,
    "e_sort": 2300104
  },
  {
    "station_cd": 2300105,
    "station_g_cd": 2300105,
    "station_name": "千住大橋",
    "station_name_k": "",
    "station_name_r": "",
    "line_cd": 23001,
    "pref_cd": 13,
    "post": "120-0038",
    "address": "足立区千住橋戸町１１-１",
    "lon": 139.796934,
    "lat": 35.74243,
    "open_ymd": "0000-00-00",
    "close_ymd": "0000-00-00",
    "e_status": 0,
    "e_sort": 2300105
  },
  {
    "station_cd": 2300106,
    "station_g_cd": 2100208,
    "station_name": "京成関屋",
    "station_name_k": "",
    "station_name_r": "",
    "line_cd": 23001,
    "pref_cd": 13,
    "post": "120-0023",
    "address": "足立区千住曙町２-２",
    "lon": 139.81183,
    "lat": 35.744008,
    "open_ymd": "0000-00-00",
    "close_ymd": "0000-00-00",
    "e_status": 0,
    "e_sort": 2300106
  },
  {
    "station_cd": 2300107,
    "station_g_cd": 2300107,
    "station_name": "堀切菖蒲園",
    "station_name_k": "",
    "station_name_r": "",
    "line_cd": 23001,
    "pref_cd": 13,
    "post": "124-0006",
    "address": "葛飾区堀切５-１-１",
    "lon": 139.827545,
    "lat": 35.747649,
    "open_ymd": "0000-00-00",
    "close_ymd": "0000-00-00",
    "e_status": 0,
    "e_sort": 2300107
  },
  {
    "station_cd": 2300108,
    "station_g_cd": 2300108,
    "station_name": "お花茶屋",
    "station_name_k": "",
    "station_name_r": "",
    "line_cd": 23001,
    "pref_cd": 13,
    "post": "124-0005",
    "address": "葛飾区宝町２-３７-１",
    "lon": 139.83988,
    "lat": 35.747585,
    "open_ymd": "0000-00-00",
    "close_ymd": "0000-00-00",
    "e_status": 0,
    "e_sort": 2300108
  },
  {
    "station_cd": 2300109,
    "station_g_cd": 2300109,
    "station_name": "青砥",
    "station_name_k": "",
    "station_name_r": "",
    "line_cd": 23001,
    "pref_cd": 13,
    "post": "125-0062",
    "address": "東京都葛飾区青戸三丁目36番1号",
    "lon": 139.856292,
    "lat": 35.745883,
    "open_ymd": "0000-00-00",
    "close_ymd": "0000-00-00",
    "e_status": 0,
    "e_sort": 2300109
  },
  {
    "station_cd": 2300110,
    "station_g_cd": 2300110,
    "station_name": "京成高砂",
    "station_name_k": "",
    "station_name_r": "",
    "line_cd": 23001,
    "pref_cd": 13,
    "post": "125-0054",
    "address": "東京都葛飾区高砂五丁目28-1",
    "lon": 139.866875,
    "lat": 35.750932,
    "open_ymd": "0000-00-00",
    "close_ymd": "0000-00-00",
    "e_status": 0,
    "e_sort": 2300110
  },
  {
    "station_cd": 2300111,
    "station_g_cd": 2300111,
    "station_name": "京成小岩",
    "station_name_k": "",
    "station_name_r": "",
    "line_cd": 23001,
    "pref_cd": 13,
    "post": "133-0051",
    "address": "江戸川区北小岩２-１０-９",
    "lon": 139.88371,
    "lat": 35.742158,
    "open_ymd": "0000-00-00",
    "close_ymd": "0000-00-00",
    "e_status": 0,
    "e_sort": 2300111
  },
  {
    "station_cd": 2300112,
    "station_g_cd": 2300112,
    "station_name": "江戸川",
    "station_name_k": "",
    "station_name_r": "",
    "line_cd": 23001,
    "pref_cd": 13,
    "post": "133-0051",
    "address": "江戸川区北小岩３-２４-１５",
    "lon": 139.896226,
    "lat": 35.737723,
    "open_ymd": "0000-00-00",
    "close_ymd": "0000-00-00",
    "e_status": 0,
    "e_sort": 2300112
  },
  {
    "station_cd": 2300201,
    "station_g_cd": 2100203,
    "station_name": "押上（スカイツリー前）",
    "station_name_k": "",
    "station_name_r": "",
    "line_cd": 23002,
    "pref_cd": 13,
    "post": "131-0045",
    "address": "墨田区押上一丁目",
    "lon": 139.812935,
    "lat": 35.710702,
    "open_ymd": "0000-00-00",
    "close_ymd": "0000-00-00",
    "e_status": 0,
    "e_sort": 2300201
  },
  {
    "station_cd": 2300202,
    "station_g_cd": 2300202,
    "station_name": "京成曳舟",
    "station_name_k": "",
    "station_name_r": "",
    "line_cd": 23002,
    "pref_cd": 13,
    "post": "131-0046",
    "address": "墨田区京島１-３９-１",
    "lon": 139.820012,
    "lat": 35.718441,
    "open_ymd": "0000-00-00",
    "close_ymd": "0000-00-00",
    "e_status": 0,
    "e_sort": 2300202
  },
  {
    "station_cd": 2300203,
    "station_g_cd": 2300203,
    "station_name": "八広",
    "station_name_k": "",
    "station_name_r": "",
    "line_cd": 23002,
    "pref_cd": 13,
    "post": "131-0041",
    "address": "墨田区八広６-２５-２０",
    "lon": 139.828738,
    "lat": 35.727687,
    "open_ymd": "0000-00-00",
    "close_ymd": "0000-00-00",
    "e_status": 0,
    "e_sort": 2300203
  },
  {
    "station_cd": 2300204,
    "station_g_cd": 2300204,
    "station_name": "四ツ木",
    "station_name_k": "",
    "station_name_r": "",
    "line_cd": 23002,
    "pref_cd": 13,
    "post": "124-0011",
    "address": "葛飾区四つ木１-１-１",
    "lon": 139.834918,
    "lat": 35.731962,
    "open_ymd": "0000-00-00",
    "close_ymd": "0000-00-00",
    "e_status": 0,
    "e_sort": 2300204
  },
  {
    "station_cd": 2300205,
    "station_g_cd": 2300205,
    "station_name": "京成立石",
    "station_name_k": "",
    "station_name_r": "",
    "line_cd": 23002,
    "pref_cd": 13,
    "post": "124-0012",
    "address": "葛飾区立石４-２４-１",
    "lon": 139.848558,
    "lat": 35.738281,
    "open_ymd": "0000-00-00",
    "close_ymd": "0000-00-00",
    "e_status": 0,
    "e_sort": 2300205
  },
  {
    "station_cd": 2300302,
    "station_g_cd": 2300302,
    "station_name": "柴又",
    "station_name_k": "",
    "station_name_r": "",
    "line_cd": 23003,
    "pref_cd": 13,
    "post": "125-0052",
    "address": "葛飾区柴又４-８-１４",
    "lon": 139.875188,
    "lat": 35.756323,
    "open_ymd": "0000-00-00",
    "close_ymd": "0000-00-00",
    "e_status": 0,
    "e_sort": 2300302
  },
  {
    "station_cd": 2300303,
    "station_g_cd": 1132008,
    "station_name": "京成金町",
    "station_name_k": "",
    "station_name_r": "",
    "line_cd": 23003,
    "pref_cd": 13,
    "post": "125-0042",
    "address": "葛飾区金町５-３７-９",
    "lon": 139.870387,
    "lat": 35.768471,
    "open_ymd": "0000-00-00",
    "close_ymd": "0000-00-00",
    "e_status": 0,
    "e_sort": 2300303
  },
  {
    "station_cd": 2400104,
    "station_g_cd": 2400104,
    "station_name": "笹塚",
    "station_name_k": "",
    "station_name_r": "",
    "line_cd": 24001,
    "pref_cd": 13,
    "post": "151-0073",
    "address": "渋谷区笹塚１-５６-７",
    "lon": 139.667251,
    "lat": 35.673758,
    "open_ymd": "0000-00-00",
    "close_ymd": "0000-00-00",
    "e_status": 0,
    "e_sort": 2400104
  },
  {
    "station_cd": 2400105,
    "station_g_cd": 2400105,
    "station_name": "代田橋",
    "station_name_k": "",
    "station_name_r": "",
    "line_cd": 24001,
    "pref_cd": 13,
    "post": "156-0041",
    "address": "世田谷区大原２-１８-９",
    "lon": 139.659413,
    "lat": 35.671092,
    "open_ymd": "0000-00-00",
    "close_ymd": "0000-00-00",
    "e_status": 0,
    "e_sort": 2400105
  },
  {
    "station_cd": 2400106,
    "station_g_cd": 2400106,
    "station_name": "明大前",
    "station_name_k": "",
    "station_name_r": "",
    "line_cd": 24001,
    "pref_cd": 13,
    "post": "156-0043",
    "address": "世田谷区松原２-４５-１",
    "lon": 139.650352,
    "lat": 35.668758,
    "open_ymd": "0000-00-00",
    "close_ymd": "0000-00-00",
    "e_status": 0,
    "e_sort": 2400106
  },
  {
    "station_cd": 2400107,
    "station_g_cd": 2400107,
    "station_name": "下高井戸",
    "station_name_k": "",
    "station_name_r": "",
    "line_cd": 24001,
    "pref_cd": 13,
    "post": "156-0043",
    "address": "世田谷区松原３-２９-１７",
    "lon": 139.641372,
    "lat": 35.66615,
    "open_ymd": "0000-00-00",
    "close_ymd": "0000-00-00",
    "e_status": 0,
    "e_sort": 2400107
  },
  {
    "station_cd": 2400108,
    "station_g_cd": 2400108,
    "station_name": "桜上水",
    "station_name_k": "",
    "station_name_r": "",
    "line_cd": 24001,
    "pref_cd": 13,
    "post": "156-0045",
    "address": "世田谷区桜上水５-２９-５２",
    "lon": 139.63129,
    "lat": 35.66768,
    "open_ymd": "0000-00-00",
    "close_ymd": "0000-00-00",
    "e_status": 0,
    "e_sort": 2400108
  },
  {
    "station_cd": 2400109,
    "station_g_cd": 2400109,
    "station_name": "上北沢",
    "station_name_k": "",
    "station_name_r": "",
    "line_cd": 24001,
    "pref_cd": 13,
    "post": "156-0057",
    "address": "世田谷区上北沢４-１４-３",
    "lon": 139.62329,
    "lat": 35.668857,
    "open_ymd": "0000-00-00",
    "close_ymd": "0000-00-00",
    "e_status": 0,
    "e_sort": 2400109
  },
  {
    "station_cd": 2400110,
    "station_g_cd": 2400110,
    "station_name": "八幡山",
    "station_name_k": "",
    "station_name_r": "",
    "line_cd": 24001,
    "pref_cd": 13,
    "post": "168-0074",
    "address": "杉並区上高井戸１-１-１１",
    "lon": 139.614927,
    "lat": 35.669982,
    "open_ymd": "0000-00-00",
    "close_ymd": "0000-00-00",
    "e_status": 0,
    "e_sort": 2400110
  },
  {
    "station_cd": 2400111,
    "station_g_cd": 2400111,
    "station_name": "芦花公園",
    "station_name_k": "",
    "station_name_r": "",
    "line_cd": 24001,
    "pref_cd": 13,
    "post": "157-0062",
    "address": "世田谷区南烏山３-１-１６",
    "lon": 139.608247,
    "lat": 35.670479,
    "open_ymd": "0000-00-00",
    "close_ymd": "0000-00-00",
    "e_status": 0,
    "e_sort": 2400111
  },
  {
    "station_cd": 2400112,
    "station_g_cd": 2400112,
    "station_name": "千歳烏山",
    "station_name_k": "",
    "station_name_r": "",
    "line_cd": 24001,
    "pref_cd": 13,
    "post": "157-0062",
    "address": "世田谷区南烏山６-１-１",
    "lon": 139.60067,
    "lat": 35.667921,
    "open_ymd": "0000-00-00",
    "close_ymd": "0000-00-00",
    "e_status": 0,
    "e_sort": 2400112
  },
  {
    "station_cd": 2400113,
    "station_g_cd": 2400113,
    "station_name": "仙川",
    "station_name_k": "",
    "station_name_r": "",
    "line_cd": 24001,
    "pref_cd": 13,
    "post": "182-0002",
    "address": "調布市仙川町１-４３",
    "lon": 139.584908,
    "lat": 35.662257,
    "open_ymd": "0000-00-00",
    "close_ymd": "0000-00-00",
    "e_status": 0,
    "e_sort": 2400113
  },
  {
    "station_cd": 2400114,
    "station_g_cd": 2400114,
    "station_name": "つつじヶ丘",
    "station_name_k": "",
    "station_name_r": "",
    "line_cd": 24001,
    "pref_cd": 13,
    "post": "182-0006",
    "address": "東京都調布市西つつじヶ丘三丁目35-1",
    "lon": 139.575103,
    "lat": 35.657936,
    "open_ymd": "0000-00-00",
    "close_ymd": "0000-00-00",
    "e_status": 0,
    "e_sort": 2400114
  },
  {
    "station_cd": 2400115,
    "station_g_cd": 2400115,
    "station_name": "柴崎",
    "station_name_k": "",
    "station_name_r": "",
    "line_cd": 24001,
    "pref_cd": 13,
    "post": "182-0007",
    "address": "調布市菊野台２-６７-１１",
    "lon": 139.56658,
    "lat": 35.653997,
    "open_ymd": "0000-00-00",
    "close_ymd": "0000-00-00",
    "e_status": 0,
    "e_sort": 2400115
  },
  {
    "station_cd": 2400116,
    "station_g_cd": 2400116,
    "station_name": "国領",
    "station_name_k": "",
    "station_name_r": "",
    "line_cd": 24001,
    "pref_cd": 13,
    "post": "182-0022",
    "address": "調布市国領町３-１８-１",
    "lon": 139.558036,
    "lat": 35.650087,
    "open_ymd": "0000-00-00",
    "close_ymd": "0000-00-00",
    "e_status": 0,
    "e_sort": 2400116
  },
  {
    "station_cd": 2400117,
    "station_g_cd": 2400117,
    "station_name": "布田",
    "station_name_k": "",
    "station_name_r": "",
    "line_cd": 24001,
    "pref_cd": 13,
    "post": "182-0022",
    "address": "調布市国領町５-６７-１",
    "lon": 139.551557,
    "lat": 35.649904,
    "open_ymd": "0000-00-00",
    "close_ymd": "0000-00-00",
    "e_status": 0,
    "e_sort": 2400117
  },
  {
    "station_cd": 2400118,
    "station_g_cd": 2400118,
    "station_name": "調布",
    "station_name_k": "",
    "station_name_r": "",
    "line_cd": 24001,
    "pref_cd": 13,
    "post": "182-0024",
    "address": "調布市布田４-３２-１",
    "lon": 139.543988,
    "lat": 35.652181,
    "open_ymd": "0000-00-00",
    "close_ymd": "0000-00-00",
    "e_status": 0,
    "e_sort": 2400118
  },
  {
    "station_cd": 2400119,
    "station_g_cd": 2400119,
    "station_name": "西調布",
    "station_name_k": "",
    "station_name_r": "",
    "line_cd": 24001,
    "pref_cd": 13,
    "post": "182-0035",
    "address": "調布市上石原１-２５-１７",
    "lon": 139.529822,
    "lat": 35.657169,
    "open_ymd": "0000-00-00",
    "close_ymd": "0000-00-00",
    "e_status": 0,
    "e_sort": 2400119
  },